incidnt_num,category,descript,day_of_week,date,time,pd_district,resolution,address,lon,lat,location,id
1.40099416E8,VEHICLE THEFT,STOLEN AND RECOVERED VEHICLE,Friday,01/31/2014 08:00:00 AM +0000,17:00,INGLESIDE,NONE,0 Block of GARRISON AV,-122.413623946206,37.709725805163,"(37.709725805163, -122.413623946206)",1
1.40092426E8,ASSAULT,BATTERY,Friday,01/31/2014 08:00:00 AM +0000,17:45,TARAVAL,"ARREST, CITED",100 Block of FONT BL,-122.47370623066,37.7154876086057,"(37.7154876086057, -122.47370623066)",2
1.4009241E8,SUSPICIOUS OCC,SUSPICIOUS OCCURRENCE,Friday,01/31/2014 08:00:00 AM +0000,15:30,PARK,NONE,0 Block of CASTRO ST,-122.435718550322,37.7686887134351,"(37.7686887134351, -122.435718550322)",3
1.40092341E8,OTHER OFFENSES,"DRIVERS LICENSE, SUSPENDED OR REVOKED",Friday,01/31/2014 08:00:00 AM +0000,17:50,CENTRAL,"ARREST, CITED",JEFFERSON ST / POWELL ST,-122.412527239682,37.8086250595467,"(37.8086250595467, -122.412527239682)",4
1.40092573E8,DRUG/NARCOTIC,POSSESSION OF NARCOTICS PARAPHERNALIA,Friday,01/31/2014 08:00:00 AM +0000,19:20,SOUTHERN,"ARREST, BOOKED",0 Block of GRACE ST,-122.414633686589,37.7750814399634,"(37.7750814399634, -122.414633686589)",5
1.46027306E8,LARCENY/THEFT,GRAND THEFT FROM LOCKED AUTO,Friday,01/31/2014 08:00:00 AM +0000,17:25,SOUTHERN,NONE,0 Block of MCCOPPIN ST,-122.421324876076,37.7716335058168,"(37.7716335058168, -122.421324876076)",6
1.40092288E8,LARCENY/THEFT,GRAND THEFT FROM LOCKED AUTO,Friday,01/31/2014 08:00:00 AM +0000,14:00,RICHMOND,NONE,400 Block of 6TH AV,-122.464337779551,37.7798376142327,"(37.7798376142327, -122.464337779551)",7
1.40092727E8,ASSAULT,BATTERY,Friday,01/31/2014 08:00:00 AM +0000,20:00,CENTRAL,NONE,500 Block of SACRAMENTO ST,-122.401338334577,37.7940182573369,"(37.7940182573369, -122.401338334577)",8
1.40092874E8,LARCENY/THEFT,PETTY THEFT SHOPLIFTING,Friday,01/31/2014 08:00:00 AM +0000,19:40,SOUTHERN,"ARREST, CITED",800 Block of MARKET ST,-122.406659517434,37.7850491022697,"(37.7850491022697, -122.406659517434)",9
1.4009283E8,OTHER OFFENSES,"DRIVERS LICENSE, SUSPENDED OR REVOKED",Friday,01/31/2014 08:00:00 AM +0000,21:35,BAYVIEW,"ARREST, CITED",BACON ST / SAN BRUNO AV,-122.403595293514,37.7276340992506,"(37.7276340992506, -122.403595293514)",10
1.40092818E8,ASSAULT,BATTERY,Friday,01/31/2014 08:00:00 AM +0000,21:06,INGLESIDE,NONE,0 Block of AMETHYST WY,-122.446066944717,37.7461152780528,"(37.7461152780528, -122.446066944717)",11
1.40092777E8,OTHER OFFENSES,"DRIVERS LICENSE, SUSPENDED OR REVOKED",Friday,01/31/2014 08:00:00 AM +0000,21:10,TARAVAL,"ARREST, CITED",JOHNMUIR DR / SKYLINEBLVD HY,-122.50022040363,37.718954166945,"(37.718954166945, -122.50022040363)",12
1.400922E8,LARCENY/THEFT,GRAND THEFT FROM LOCKED AUTO,Friday,01/31/2014 08:00:00 AM +0000,09:00,RICHMOND,NONE,500 Block of JOHNFKENNEDY DR,-122.465838183623,37.7724965522266,"(37.7724965522266, -122.465838183623)",13
1.40092125E8,NON-CRIMINAL,FOUND PROPERTY,Friday,01/31/2014 08:00:00 AM +0000,14:30,PARK,NONE,1800 Block of WALLER ST,-122.454877622403,37.7681470009312,"(37.7681470009312, -122.454877622403)",14
1.4009209E8,DRUNKENNESS,UNDER INFLUENCE OF ALCOHOL IN A PUBLIC PLACE,Friday,01/31/2014 08:00:00 AM +0000,16:00,SOUTHERN,"ARREST, BOOKED",0 Block of 7TH ST,-122.411129232783,37.7793161544586,"(37.7793161544586, -122.411129232783)",15
1.40092084E8,DRUG/NARCOTIC,POSSESSION OF METH-AMPHETAMINE,Friday,01/31/2014 08:00:00 AM +0000,15:13,MISSION,"ARREST, BOOKED",16TH ST / MISSION ST,-122.419671780296,37.7650501214668,"(37.7650501214668, -122.419671780296)",16
1.40092078E8,OTHER OFFENSES,POSSESSION OF BURGLARY TOOLS,Friday,01/31/2014 08:00:00 AM +0000,15:58,BAYVIEW,"ARREST, BOOKED",0 Block of DAKOTA ST,-122.396076588569,37.7542080589805,"(37.7542080589805, -122.396076588569)",17
1.4009204E8,LARCENY/THEFT,GRAND THEFT FROM LOCKED AUTO,Friday,01/31/2014 08:00:00 AM +0000,11:00,RICHMOND,NONE,300 Block of MARTIN LUTHER KING JR DR,-122.464413831456,37.7664562802319,"(37.7664562802319, -122.464413831456)",18
1.40091848E8,NON-CRIMINAL,"DEATH REPORT, CAUSE UNKNOWN",Friday,01/31/2014 08:00:00 AM +0000,14:48,NORTHERN,NONE,100 Block of FELL ST,-122.420676028352,37.7762540028806,"(37.7762540028806, -122.420676028352)",19
1.40091785E8,LARCENY/THEFT,GRAND THEFT FROM UNLOCKED AUTO,Friday,01/31/2014 08:00:00 AM +0000,14:00,CENTRAL,NONE,BROADWAY ST / CORDELIA ST,-122.409043928994,37.7975730481122,"(37.7975730481122, -122.409043928994)",20
1.4602734E8,LARCENY/THEFT,PETTY THEFT OF PROPERTY,Friday,01/31/2014 08:00:00 AM +0000,16:00,SOUTHERN,NONE,0 Block of MARKET ST,-122.394874899097,37.7945372364598,"(37.7945372364598, -122.394874899097)",21
1.40091666E8,WARRANTS,WARRANT ARREST,Friday,01/31/2014 08:00:00 AM +0000,13:45,MISSION,"ARREST, BOOKED",2000 Block of MISSION ST,-122.419600224041,37.7638676440328,"(37.7638676440328, -122.419600224041)",22
1.40091666E8,ASSAULT,BATTERY,Friday,01/31/2014 08:00:00 AM +0000,13:45,MISSION,"ARREST, BOOKED",2000 Block of MISSION ST,-122.419600224041,37.7638676440328,"(37.7638676440328, -122.419600224041)",23
1.40091581E8,LARCENY/THEFT,GRAND THEFT FROM UNLOCKED AUTO,Friday,01/31/2014 08:00:00 AM +0000,11:35,PARK,NONE,HAYES ST / PIERCE ST,-122.434485055659,37.7754165687704,"(37.7754165687704, -122.434485055659)",24
1.40091503E8,ROBBERY,"ROBBERY, BODILY FORCE",Friday,01/31/2014 08:00:00 AM +0000,12:20,SOUTHERN,NONE,800 Block of BRYANT ST,-122.403742962696,37.7752316978114,"(37.7752316978114, -122.403742962696)",25
1.40091456E8,DRUG/NARCOTIC,POSSESSION OF NARCOTICS PARAPHERNALIA,Friday,01/31/2014 08:00:00 AM +0000,11:55,PARK,"ARREST, CITED",1600 Block of FULTON ST,-122.444406199614,37.7760977755843,"(37.7760977755843, -122.444406199614)",26
1.46027356E8,LARCENY/THEFT,GRAND THEFT FROM LOCKED AUTO,Friday,01/31/2014 08:00:00 AM +0000,23:30,SOUTHERN,NONE,SHIPLEY ST / 5TH ST,-122.402842748428,37.7798294192767,"(37.7798294192767, -122.402842748428)",27
1.46027895E8,LARCENY/THEFT,PETTY THEFT OF PROPERTY,Friday,01/31/2014 08:00:00 AM +0000,20:40,SOUTHERN,NONE,0 Block of NEWMONTGOMERY ST,-122.401135170461,37.7880115303236,"(37.7880115303236, -122.401135170461)",28
1.46027942E8,LARCENY/THEFT,GRAND THEFT FROM LOCKED AUTO,Friday,01/31/2014 08:00:00 AM +0000,16:00,SOUTHERN,NONE,RINGOLD ST / 9TH ST,-122.411075138748,37.7733316677301,"(37.7733316677301, -122.411075138748)",29
1.40091177E8,NON-CRIMINAL,"DEATH REPORT, CAUSE UNKNOWN",Friday,01/31/2014 08:00:00 AM +0000,00:01,TARAVAL,NONE,1400 Block of 48TH AV,-122.508010096521,37.7589334708659,"(37.7589334708659, -122.508010096521)",30
1.40092539E8,MISSING PERSON,FOUND PERSON,Friday,01/31/2014 08:00:00 AM +0000,09:30,TARAVAL,LOCATED,0 Block of LOBOS ST,-122.455666413481,37.7148737118982,"(37.7148737118982, -122.455666413481)",31
1.46028241E8,NON-CRIMINAL,LOST PROPERTY,Friday,01/31/2014 08:00:00 AM +0000,01:00,CENTRAL,NONE,GEARY ST / TAYLOR ST,-122.411518820359,37.7869408998805,"(37.7869408998805, -122.411518820359)",32
1.40090969E8,ASSAULT,AGGRAVATED ASSAULT WITH A KNIFE,Friday,01/31/2014 08:00:00 AM +0000,06:00,MISSION,NONE,1000 Block of POTRERO AV,-122.406677245558,37.7561400516041,"(37.7561400516041, -122.406677245558)",33
1.40093725E8,NON-CRIMINAL,LOST PROPERTY,Friday,01/31/2014 08:00:00 AM +0000,00:01,SOUTHERN,NONE,300 Block of 11TH ST,-122.413484442909,37.7714776245994,"(37.7714776245994, -122.413484442909)",67
1.40090947E8,ROBBERY,ROBBERY ON THE STREET WITH A GUN,Friday,01/31/2014 08:00:00 AM +0000,07:30,NORTHERN,NONE,BUSH ST / STEINER ST,-122.435107179729,37.7868088327514,"(37.7868088327514, -122.435107179729)",34
1.40092539E8,MISSING PERSON,MISSING JUVENILE,Friday,01/31/2014 08:00:00 AM +0000,09:30,TARAVAL,LOCATED,0 Block of LOBOS ST,-122.455666413481,37.7148737118982,"(37.7148737118982, -122.455666413481)",35
1.40090919E8,OTHER OFFENSES,POSSESSION OF BURGLARY TOOLS,Friday,01/31/2014 08:00:00 AM +0000,07:05,MISSION,"ARREST, BOOKED",300 Block of DOLORES ST,-122.4262118867,37.7642984128867,"(37.7642984128867, -122.4262118867)",36
1.40090919E8,OTHER OFFENSES,PROBATION VIOLATION,Friday,01/31/2014 08:00:00 AM +0000,07:05,MISSION,"ARREST, BOOKED",300 Block of DOLORES ST,-122.4262118867,37.7642984128867,"(37.7642984128867, -122.4262118867)",37
1.40090884E8,NON-CRIMINAL,"AIDED CASE, MENTAL DISTURBED",Friday,01/31/2014 08:00:00 AM +0000,07:47,SOUTHERN,PSYCHOPATHIC CASE,0 Block of 6TH ST,-122.409574494976,37.7816102568731,"(37.7816102568731, -122.409574494976)",38
1.40092498E8,MISSING PERSON,FOUND PERSON,Friday,01/31/2014 08:00:00 AM +0000,08:00,SOUTHERN,LOCATED,0 Block of MOSS ST,-122.407867537061,37.7776864127303,"(37.7776864127303, -122.407867537061)",39
1.40092498E8,MISSING PERSON,MISSING ADULT,Friday,01/31/2014 08:00:00 AM +0000,08:00,SOUTHERN,LOCATED,0 Block of MOSS ST,-122.407867537061,37.7776864127303,"(37.7776864127303, -122.407867537061)",40
1.40091105E8,VEHICLE THEFT,STOLEN TRUCK,Friday,01/31/2014 08:00:00 AM +0000,00:01,BAYVIEW,NONE,1500 Block of PALOU AV,-122.390048154309,37.7334509801006,"(37.7334509801006, -122.390048154309)",41
1.40090812E8,OTHER OFFENSES,"DRIVERS LICENSE, SUSPENDED OR REVOKED",Friday,01/31/2014 08:00:00 AM +0000,06:25,CENTRAL,"ARREST, CITED",SACRAMENTO ST / SANSOME ST,-122.401319002979,37.7939867990287,"(37.7939867990287, -122.401319002979)",42
1.40090771E8,WARRANTS,ENROUTE TO DEPARTMENT OF CORRECTIONS,Friday,01/31/2014 08:00:00 AM +0000,04:26,MISSION,"ARREST, BOOKED",CHURCH ST / 19TH ST,-122.428203997155,37.759691691831,"(37.759691691831, -122.428203997155)",43
1.40090771E8,OTHER OFFENSES,VIOLATION OF PARK CODE,Friday,01/31/2014 08:00:00 AM +0000,04:26,MISSION,"ARREST, BOOKED",CHURCH ST / 19TH ST,-122.428203997155,37.759691691831,"(37.759691691831, -122.428203997155)",44
1.40090743E8,NON-CRIMINAL,"AIDED CASE, MENTAL DISTURBED",Friday,01/31/2014 08:00:00 AM +0000,03:52,MISSION,PSYCHOPATHIC CASE,CASTRO ST / 24TH ST,-122.434089046473,37.7513050185724,"(37.7513050185724, -122.434089046473)",45
1.40090721E8,ROBBERY,ATTEMPTED ROBBERY ON THE STREET WITH BODILY FORCE,Friday,01/31/2014 08:00:00 AM +0000,00:45,SOUTHERN,NONE,1300 Block of FOLSOM ST,-122.412397542907,37.7729954122426,"(37.7729954122426, -122.412397542907)",46
1.4009068E8,ROBBERY,"ROBBERY, ARMED WITH A GUN",Friday,01/31/2014 08:00:00 AM +0000,02:30,MISSION,NONE,18TH ST / MISSION ST,-122.419360352761,37.7618358012376,"(37.7618358012376, -122.419360352761)",47
1.40090646E8,ASSAULT,AGGRAVATED ASSAULT WITH BODILY FORCE,Friday,01/31/2014 08:00:00 AM +0000,02:02,RICHMOND,NONE,GEARY BL / 4TH AV,-122.462141270182,37.7811098899332,"(37.7811098899332, -122.462141270182)",48
1.40090602E8,OTHER OFFENSES,"DRIVERS LICENSE, SUSPENDED OR REVOKED",Friday,01/31/2014 08:00:00 AM +0000,01:00,NORTHERN,NONE,BUSH ST / VANNESS AV,-122.421949487547,37.7884881521135,"(37.7884881521135, -122.421949487547)",49
1.40090527E8,OTHER OFFENSES,"DRIVERS LICENSE, SUSPENDED OR REVOKED",Friday,01/31/2014 08:00:00 AM +0000,00:15,CENTRAL,"ARREST, CITED",BROADWAY ST / COLUMBUS AV,-122.406669739951,37.7978641744394,"(37.7978641744394, -122.406669739951)",50
1.46021659E8,VANDALISM,"MALICIOUS MISCHIEF, VANDALISM OF VEHICLES",Friday,01/31/2014 08:00:00 AM +0000,00:01,NORTHERN,NONE,1000 Block of EDDY ST,-122.425434757144,37.7823409551124,"(37.7823409551124, -122.425434757144)",51
1.40099228E8,VEHICLE THEFT,STOLEN TRUCK,Friday,01/31/2014 08:00:00 AM +0000,17:00,INGLESIDE,NONE,200 Block of FRANCE AV,-122.436371646631,37.7190480591598,"(37.7190480591598, -122.436371646631)",52
1.40092749E8,LARCENY/THEFT,GRAND THEFT FROM LOCKED AUTO,Friday,01/31/2014 08:00:00 AM +0000,17:00,NORTHERN,NONE,VANNESS AV / GOLDEN GATE AV,-122.420439512717,37.7810308461783,"(37.7810308461783, -122.420439512717)",53
1.46021621E8,NON-CRIMINAL,LOST PROPERTY,Friday,01/31/2014 08:00:00 AM +0000,10:40,NORTHERN,NONE,JACKSON ST / STEINER ST,-122.436204681076,37.792262677181,"(37.792262677181, -122.436204681076)",54
1.4602158E8,LARCENY/THEFT,GRAND THEFT FROM LOCKED AUTO,Friday,01/31/2014 08:00:00 AM +0000,01:45,NORTHERN,NONE,VANNESS AV / OFARRELL ST,-122.421195221815,37.7847536577561,"(37.7847536577561, -122.421195221815)",55
1.46021568E8,LARCENY/THEFT,GRAND THEFT FROM LOCKED AUTO,Friday,01/31/2014 08:00:00 AM +0000,15:00,NORTHERN,NONE,1500 Block of SUTTER ST,-122.42652192415,37.7869774998674,"(37.7869774998674, -122.42652192415)",56
1.46021552E8,LARCENY/THEFT,GRAND THEFT FROM UNLOCKED AUTO,Friday,01/31/2014 08:00:00 AM +0000,16:00,NORTHERN,NONE,GOLDEN GATE AV / VANNESS AV,-122.420439512717,37.7810308461783,"(37.7810308461783, -122.420439512717)",57
1.40092755E8,ROBBERY,ATTEMPTED ROBBERY WITH BODILY FORCE,Friday,01/31/2014 08:00:00 AM +0000,18:00,BAYVIEW,NONE,1700 Block of BANCROFT AV,-122.395586686218,37.7273281687149,"(37.7273281687149, -122.395586686218)",58
1.46021546E8,LARCENY/THEFT,PETTY THEFT OF PROPERTY,Friday,01/31/2014 08:00:00 AM +0000,15:45,NORTHERN,NONE,1100 Block of EDDY ST,-122.425555758353,37.7824027114429,"(37.7824027114429, -122.425555758353)",59
1.40092664E8,OTHER OFFENSES,"DRIVERS LICENSE, SUSPENDED OR REVOKED",Friday,01/31/2014 08:00:00 AM +0000,20:05,BAYVIEW,"ARREST, CITED",1000 Block of FITZGERALD AV,-122.388081170683,37.7190646492774,"(37.7190646492774, -122.388081170683)",60
1.40098628E8,BURGLARY,"BURGLARY,STORE UNDER CONSTRUCTION, FORCIBLE ENTRY",Friday,01/31/2014 08:00:00 AM +0000,17:00,MISSION,NONE,2800 Block of 23RD ST,-122.38772399978,37.7529087730115,"(37.7529087730115, -122.38772399978)",61
1.40098242E8,LARCENY/THEFT,GRAND THEFT FROM A BUILDING,Friday,01/31/2014 08:00:00 AM +0000,18:00,PARK,NONE,900 Block of HAIGHT ST,-122.437152175795,37.7713658941506,"(37.7713658941506, -122.437152175795)",62
1.40091779E8,ARSON,ARSON,Friday,01/31/2014 08:00:00 AM +0000,14:05,SOUTHERN,"ARREST, BOOKED",800 Block of BRYANT ST,-122.403742962696,37.7752316978114,"(37.7752316978114, -122.403742962696)",63
1.40097266E8,LARCENY/THEFT,GRAND THEFT FROM LOCKED AUTO,Friday,01/31/2014 08:00:00 AM +0000,22:30,NORTHERN,NONE,LARKIN ST / WILLOW ST,-122.41762232101,37.7837762385684,"(37.7837762385684, -122.41762232101)",64
1.40093957E8,NON-CRIMINAL,LOST PROPERTY,Friday,01/31/2014 08:00:00 AM +0000,11:45,SOUTHERN,NONE,1300 Block of MARKET ST,-122.416929458348,37.7769459155765,"(37.7769459155765, -122.416929458348)",65
1.40093894E8,VANDALISM,"MALICIOUS MISCHIEF, BREAKING WINDOWS",Friday,01/31/2014 08:00:00 AM +0000,23:00,BAYVIEW,NONE,0 Block of DOUBLEROCK ST,-122.387412061507,37.7203691906408,"(37.7203691906408, -122.387412061507)",66
1.40093725E8,FRAUD,"CREDIT CARD, THEFT BY USE OF",Friday,01/31/2014 08:00:00 AM +0000,00:01,SOUTHERN,NONE,300 Block of 11TH ST,-122.413484442909,37.7714776245994,"(37.7714776245994, -122.413484442909)",68
1.40093468E8,LARCENY/THEFT,PETTY THEFT FROM LOCKED AUTO,Friday,01/31/2014 08:00:00 AM +0000,23:00,SOUTHERN,NONE,0 Block of HARRISON ST,-122.38914388763,37.7889082821131,"(37.7889082821131, -122.38914388763)",69
1.40093452E8,LARCENY/THEFT,PETTY THEFT FROM LOCKED AUTO,Friday,01/31/2014 08:00:00 AM +0000,23:00,SOUTHERN,NONE,800 Block of HARRISON ST,-122.399966276075,37.7806711005541,"(37.7806711005541, -122.399966276075)",70
1.40093399E8,LARCENY/THEFT,PETTY THEFT FROM LOCKED AUTO,Friday,01/31/2014 08:00:00 AM +0000,23:30,SOUTHERN,NONE,RIZAL ST / LAPU-LAPU ST,-122.398882384128,37.7822226458536,"(37.7822226458536, -122.398882384128)",71
1.40093151E8,ASSAULT,AGGRAVATED ASSAULT WITH A DEADLY WEAPON,Friday,01/31/2014 08:00:00 AM +0000,23:00,TENDERLOIN,NONE,TAYLOR ST / ELLIS ST,-122.411141948101,37.7850736197499,"(37.7850736197499, -122.411141948101)",72
1.40093098E8,LARCENY/THEFT,PETTY THEFT FROM A BUILDING,Friday,01/31/2014 08:00:00 AM +0000,16:30,SOUTHERN,NONE,1000 Block of MISSION ST,-122.410304498085,37.7795581696318,"(37.7795581696318, -122.410304498085)",73
1.40091757E8,SUSPICIOUS OCC,SUSPICIOUS OCCURRENCE,Friday,01/31/2014 08:00:00 AM +0000,13:50,INGLESIDE,NONE,100 Block of SANTOS ST,-122.418712842742,37.7105940136325,"(37.7105940136325, -122.418712842742)",74
1.40093082E8,VANDALISM,"MALICIOUS MISCHIEF, VANDALISM OF VEHICLES",Friday,01/31/2014 08:00:00 AM +0000,22:30,BAYVIEW,NONE,KIRKWOOD AV / NEWHALL ST,-122.389960179517,37.7381683051019,"(37.7381683051019, -122.389960179517)",75
1.40093004E8,LARCENY/THEFT,PETTY THEFT FROM A BUILDING,Friday,01/31/2014 08:00:00 AM +0000,22:30,BAYVIEW,NONE,0 Block of NORTHRIDGE RD,-122.374839441793,37.7304111101808,"(37.7304111101808, -122.374839441793)",76
1.40099319E8,FRAUD,"FORGERY, CREDIT CARD",Friday,01/31/2014 08:00:00 AM +0000,01:32,CENTRAL,"ARREST, BOOKED",600 Block of POST ST,-122.412109462622,37.7878540750128,"(37.7878540750128, -122.412109462622)",77
1.40092959E8,OTHER OFFENSES,"DRIVERS LICENSE, SUSPENDED OR REVOKED",Friday,01/31/2014 08:00:00 AM +0000,22:33,NORTHERN,"ARREST, CITED",GREEN ST / FRANKLIN ST,-122.425441324739,37.7974080855319,"(37.7974080855319, -122.425441324739)",78
1.4009267E8,NON-CRIMINAL,"DEATH REPORT, CAUSE UNKNOWN",Friday,01/31/2014 08:00:00 AM +0000,14:46,BAYVIEW,NONE,100 Block of BERTHA LN,-122.381133787773,37.7331743040163,"(37.7331743040163, -122.381133787773)",79
1.40092589E8,OTHER OFFENSES,"DRIVERS LICENSE, SUSPENDED OR REVOKED",Friday,01/31/2014 08:00:00 AM +0000,19:52,MISSION,"ARREST, CITED",23RD ST / VERMONT ST,-122.403524795218,37.7544534411473,"(37.7544534411473, -122.403524795218)",80
1.40092523E8,OTHER OFFENSES,"DRIVERS LICENSE, SUSPENDED OR REVOKED",Friday,01/31/2014 08:00:00 AM +0000,19:20,MISSION,"ARREST, CITED",1400 Block of SOUTH VAN NESS AV,-122.415926948585,37.749326703275,"(37.749326703275, -122.415926948585)",81
1.40092454E8,OTHER OFFENSES,"DRIVERS LICENSE, SUSPENDED OR REVOKED",Friday,01/31/2014 08:00:00 AM +0000,19:06,MISSION,"ARREST, CITED",18TH ST / NOE ST,-122.432795347224,37.7610201697083,"(37.7610201697083, -122.432795347224)",82
1.40092448E8,OTHER OFFENSES,"DRIVERS LICENSE, SUSPENDED OR REVOKED",Friday,01/31/2014 08:00:00 AM +0000,18:30,INGLESIDE,"ARREST, CITED",VALENCIA ST / MISSION ST,-122.420021755228,37.7453901680777,"(37.7453901680777, -122.420021755228)",83
1.40092169E8,OTHER OFFENSES,"DRIVERS LICENSE, SUSPENDED OR REVOKED",Friday,01/31/2014 08:00:00 AM +0000,04:44,SOUTHERN,"ARREST, CITED",MARKET ST / 10TH ST,-122.417504703145,37.7765400380328,"(37.7765400380328, -122.417504703145)",84
1.40091616E8,OTHER OFFENSES,"DRIVERS LICENSE, SUSPENDED OR REVOKED",Friday,01/31/2014 08:00:00 AM +0000,01:36,SOUTHERN,"ARREST, CITED",MARKET ST / 10TH ST,-122.417504703145,37.7765400380328,"(37.7765400380328, -122.417504703145)",85
1.40091111E8,OTHER OFFENSES,"DRIVERS LICENSE, SUSPENDED OR REVOKED",Friday,01/31/2014 08:00:00 AM +0000,10:03,SOUTHERN,"ARREST, CITED",SOUTHPARK AV / 2ND ST,-122.392845456789,37.7824570677935,"(37.7824570677935, -122.392845456789)",86
1.40090975E8,OTHER OFFENSES,"DRIVERS LICENSE, SUSPENDED OR REVOKED",Friday,01/31/2014 08:00:00 AM +0000,08:39,SOUTHERN,"ARREST, CITED",MISSION ST / 11TH ST,-122.417104895556,37.7743242867907,"(37.7743242867907, -122.417104895556)",87
1.40090953E8,OTHER OFFENSES,"DRIVERS LICENSE, SUSPENDED OR REVOKED",Friday,01/31/2014 08:00:00 AM +0000,08:30,TENDERLOIN,"ARREST, CITED",MARKET ST / 8TH ST,-122.414743835382,37.778719262789,"(37.778719262789, -122.414743835382)",88
1.40091058E8,OTHER OFFENSES,"DRIVERS LICENSE, SUSPENDED OR REVOKED",Friday,01/31/2014 08:00:00 AM +0000,09:15,SOUTHERN,"ARREST, CITED",GOLDEN GATE AV / MARKET ST,-122.41029351969,37.7822305870036,"(37.7822305870036, -122.41029351969)",89
1.40091218E8,ROBBERY,ROBBERY OF A RESIDENCE WITH A GUN,Friday,01/31/2014 08:00:00 AM +0000,10:10,INGLESIDE,NONE,100 Block of MADISON ST,-122.423123727204,37.727631302439,"(37.727631302439, -122.423123727204)",90
1.40091218E8,BURGLARY,"BURGLARY OF RESIDENCE, FORCIBLE ENTRY",Friday,01/31/2014 08:00:00 AM +0000,10:10,INGLESIDE,NONE,100 Block of MADISON ST,-122.423123727204,37.727631302439,"(37.727631302439, -122.423123727204)",91
1.40091218E8,KIDNAPPING,FALSE IMPRISONMENT,Friday,01/31/2014 08:00:00 AM +0000,10:10,INGLESIDE,NONE,100 Block of MADISON ST,-122.423123727204,37.727631302439,"(37.727631302439, -122.423123727204)",92
1.40091826E8,ASSAULT,BATTERY,Friday,01/31/2014 08:00:00 AM +0000,14:45,MISSION,NONE,1000 Block of VALENCIA ST,-122.421122531675,37.7564995730044,"(37.7564995730044, -122.421122531675)",93
1.40091519E8,ROBBERY,"ROBBERY, BODILY FORCE",Friday,01/31/2014 08:00:00 AM +0000,12:25,SOUTHERN,"ARREST, BOOKED",MISSION ST / 5TH ST,-122.406481972743,37.7827317884887,"(37.7827317884887, -122.406481972743)",94
1.40091876E8,VEHICLE THEFT,STOLEN AND RECOVERED VEHICLE,Friday,01/31/2014 08:00:00 AM +0000,03:59,NORTHERN,NONE,LILY ST / GOUGH ST,-122.422502486289,37.7745522802252,"(37.7745522802252, -122.422502486289)",95
1.40090856E8,OTHER OFFENSES,INDECENT EXPOSURE,Friday,01/31/2014 08:00:00 AM +0000,06:45,CENTRAL,NONE,500 Block of COMMERCIAL ST,-122.40245400167,37.7941804323514,"(37.7941804323514, -122.40245400167)",96
1.40090834E8,DRUG/NARCOTIC,POSSESSION OF BASE/ROCK COCAINE,Friday,01/31/2014 08:00:00 AM +0000,06:32,TENDERLOIN,"ARREST, BOOKED",HYDE ST / EDDY ST,-122.415885065788,37.7835160564153,"(37.7835160564153, -122.415885065788)",97
1.40090834E8,ROBBERY,ROBBERY ON THE STREET WITH A DANGEROUS WEAPON,Friday,01/31/2014 08:00:00 AM +0000,06:32,TENDERLOIN,"ARREST, BOOKED",HYDE ST / EDDY ST,-122.415885065788,37.7835160564153,"(37.7835160564153, -122.415885065788)",98
1.40090828E8,BURGLARY,"BURGLARY, FORCIBLE ENTRY",Friday,01/31/2014 08:00:00 AM +0000,05:30,NORTHERN,NONE,2200 Block of LOMBARD ST,-122.43930620989,37.7993946618998,"(37.7993946618998, -122.43930620989)",99
1.40090759E8,ASSAULT,BATTERY,Friday,01/31/2014 08:00:00 AM +0000,02:00,NORTHERN,NONE,OCTAVIA ST / FELL ST,-122.424436633246,37.7757403536826,"(37.7757403536826, -122.424436633246)",100
1.40090759E8,ROBBERY,"ROBBERY, BODILY FORCE",Friday,01/31/2014 08:00:00 AM +0000,02:00,NORTHERN,NONE,OCTAVIA ST / FELL ST,-122.424436633246,37.7757403536826,"(37.7757403536826, -122.424436633246)",101
1.40090599E8,OTHER OFFENSES,POSSESSION OF FIRECRACKERS,Friday,01/31/2014 08:00:00 AM +0000,00:30,CENTRAL,NONE,900 Block of GRANT AV,-122.406361122073,37.7952563565424,"(37.7952563565424, -122.406361122073)",102
1.40091876E8,VEHICLE THEFT,STOLEN MOTORCYCLE,Friday,01/31/2014 08:00:00 AM +0000,03:59,NORTHERN,NONE,LILY ST / GOUGH ST,-122.422502486289,37.7745522802252,"(37.7745522802252, -122.422502486289)",103
1.40091882E8,ASSAULT,ASSAULT,Friday,01/31/2014 08:00:00 AM +0000,15:00,INGLESIDE,NONE,1900 Block of SUNNYDALE AV,-122.421354430544,37.713254746441,"(37.713254746441, -122.421354430544)",104
1.40091882E8,ASSAULT,THREATS AGAINST LIFE,Friday,01/31/2014 08:00:00 AM +0000,15:00,INGLESIDE,NONE,1900 Block of SUNNYDALE AV,-122.421354430544,37.713254746441,"(37.713254746441, -122.421354430544)",105
1.40091898E8,ASSAULT,ATTEMPTED SIMPLE ASSAULT,Friday,01/31/2014 08:00:00 AM +0000,15:06,MISSION,NONE,23RD ST / VALENCIA ST,-122.420814360139,37.7537031921344,"(37.7537031921344, -122.420814360139)",106
1.40091939E8,SUSPICIOUS OCC,SUSPICIOUS OCCURRENCE,Friday,01/31/2014 08:00:00 AM +0000,08:00,CENTRAL,NONE,600 Block of GEARY ST,-122.413808140095,37.7866078103297,"(37.7866078103297, -122.413808140095)",107
1.40093264E8,LARCENY/THEFT,PETTY THEFT FROM LOCKED AUTO,Friday,01/31/2014 08:00:00 AM +0000,20:15,NORTHERN,NONE,1300 Block of WEBSTER ST,-122.430908286149,37.7828933039182,"(37.7828933039182, -122.430908286149)",108
1.40093907E8,VEHICLE THEFT,STOLEN TRUCK,Friday,01/31/2014 08:00:00 AM +0000,18:00,INGLESIDE,NONE,300 Block of BALTIMORE WY,-122.439193947382,37.7094506122423,"(37.7094506122423, -122.439193947382)",109
1.40099319E8,WARRANTS,WARRANT ARREST,Friday,01/31/2014 08:00:00 AM +0000,01:32,CENTRAL,"ARREST, BOOKED",600 Block of POST ST,-122.412109462622,37.7878540750128,"(37.7878540750128, -122.412109462622)",110
1.40093985E8,VEHICLE THEFT,STOLEN AUTOMOBILE,Friday,01/31/2014 08:00:00 AM +0000,17:00,BAYVIEW,NONE,PALOU AV / INGALLS ST,-122.383433948755,37.7297381449981,"(37.7297381449981, -122.383433948755)",111
1.40092802E8,ASSAULT,THREATS AGAINST LIFE,Friday,01/31/2014 08:00:00 AM +0000,19:00,BAYVIEW,NONE,5600 Block of 3RD ST,-122.394024179381,37.7262971842364,"(37.7262971842364, -122.394024179381)",112
1.40099416E8,VEHICLE THEFT,STOLEN TRUCK,Friday,01/31/2014 08:00:00 AM +0000,17:00,INGLESIDE,NONE,0 Block of GARRISON AV,-122.413623946206,37.709725805163,"(37.709725805163, -122.413623946206)",113
1.40091729E8,NON-CRIMINAL,FOUND PROPERTY,Friday,01/31/2014 08:00:00 AM +0000,14:14,CENTRAL,NONE,900 Block of FILBERT ST,-122.414783076141,37.8007304486958,"(37.8007304486958, -122.414783076141)",114
1.40100057E8,VEHICLE THEFT,STOLEN MOTORCYCLE,Friday,01/31/2014 08:00:00 AM +0000,02:00,NORTHERN,NONE,400 Block of FULTON ST,-122.424512784133,37.7785663034337,"(37.7785663034337, -122.424512784133)",115
1.40094187E8,FRAUD,"CREDIT CARD, THEFT BY USE OF",Friday,01/31/2014 08:00:00 AM +0000,02:00,NORTHERN,NONE,800 Block of LARKIN ST,-122.417945928506,37.7855879292973,"(37.7855879292973, -122.417945928506)",116
1.40094187E8,OTHER OFFENSES,MISCELLANEOUS INVESTIGATION,Friday,01/31/2014 08:00:00 AM +0000,02:00,NORTHERN,NONE,800 Block of LARKIN ST,-122.417945928506,37.7855879292973,"(37.7855879292973, -122.417945928506)",117
1.40100461E8,LARCENY/THEFT,PETTY THEFT FROM LOCKED AUTO,Friday,01/31/2014 08:00:00 AM +0000,16:00,NORTHERN,NONE,SUTTER ST / GOUGH ST,-122.425050227972,37.7871300371831,"(37.7871300371831, -122.425050227972)",118
1.40091729E8,SUSPICIOUS OCC,SUSPICIOUS OCCURRENCE,Friday,01/31/2014 08:00:00 AM +0000,14:14,CENTRAL,NONE,900 Block of FILBERT ST,-122.414783076141,37.8007304486958,"(37.8007304486958, -122.414783076141)",119
1.40092824E8,BURGLARY,"BURGLARY, HOT PROWL, FORCIBLE ENTRY",Friday,01/31/2014 08:00:00 AM +0000,15:00,BAYVIEW,NONE,0 Block of LUCY ST,-122.393428906941,37.7298860972201,"(37.7298860972201, -122.393428906941)",120
1.40092846E8,VANDALISM,"MALICIOUS MISCHIEF, VANDALISM",Friday,01/31/2014 08:00:00 AM +0000,21:16,SOUTHERN,NONE,1500 Block of MARKET ST,-122.420210776002,37.7744403494771,"(37.7744403494771, -122.420210776002)",121
1.40103051E8,VEHICLE THEFT,STOLEN AUTOMOBILE,Friday,01/31/2014 08:00:00 AM +0000,07:00,RICHMOND,NONE,600 Block of BALBOA ST,-122.465443140416,37.7772776460669,"(37.7772776460669, -122.465443140416)",122
1.40100756E8,LARCENY/THEFT,PETTY THEFT FROM A BUILDING,Friday,01/31/2014 08:00:00 AM +0000,16:00,PARK,NONE,400 Block of STANYAN ST,-122.454520572652,37.7743679615718,"(37.7743679615718, -122.454520572652)",123
1.40091707E8,SUSPICIOUS OCC,SUSPICIOUS OCCURRENCE,Friday,01/31/2014 08:00:00 AM +0000,10:00,SOUTHERN,NONE,100 Block of 3RD ST,-122.400628855762,37.7851986640572,"(37.7851986640572, -122.400628855762)",124
1.40095113E8,MISSING PERSON,MISSING JUVENILE,Friday,01/31/2014 08:00:00 AM +0000,21:30,BAYVIEW,NONE,1900 Block of QUESADA AV,-122.396001245411,37.7359634507997,"(37.7359634507997, -122.396001245411)",125
1.40105364E8,LARCENY/THEFT,PETTY THEFT FROM A BUILDING,Friday,01/31/2014 08:00:00 AM +0000,08:00,NORTHERN,NONE,200 Block of BUCHANAN ST,-122.427194357847,37.7724854085336,"(37.7724854085336, -122.427194357847)",126
1.40091672E8,VANDALISM,"MALICIOUS MISCHIEF, VANDALISM",Friday,01/31/2014 08:00:00 AM +0000,13:50,SOUTHERN,"ARREST, BOOKED",1400 Block of MARKET ST,-122.418185163575,37.7761537304277,"(37.7761537304277, -122.418185163575)",127
1.40091672E8,ASSAULT,THREATS AGAINST LIFE,Friday,01/31/2014 08:00:00 AM +0000,13:50,SOUTHERN,"ARREST, BOOKED",1400 Block of MARKET ST,-122.418185163575,37.7761537304277,"(37.7761537304277, -122.418185163575)",128
1.40095113E8,MISSING PERSON,FOUND PERSON,Friday,01/31/2014 08:00:00 AM +0000,21:30,BAYVIEW,NONE,1900 Block of QUESADA AV,-122.396001245411,37.7359634507997,"(37.7359634507997, -122.396001245411)",129
1.40091672E8,ASSAULT,AGGRAVATED ASSAULT WITH A DEADLY WEAPON,Friday,01/31/2014 08:00:00 AM +0000,13:50,SOUTHERN,"ARREST, BOOKED",1400 Block of MARKET ST,-122.418185163575,37.7761537304277,"(37.7761537304277, -122.418185163575)",130
1.40092852E8,NON-CRIMINAL,"AIDED CASE, MENTAL DISTURBED",Friday,01/31/2014 08:00:00 AM +0000,21:30,TARAVAL,PSYCHOPATHIC CASE,1600 Block of 19TH AV,-122.476724689631,37.7579385997724,"(37.7579385997724, -122.476724689631)",131
1.40092868E8,ASSAULT,THREATS AGAINST LIFE,Friday,01/31/2014 08:00:00 AM +0000,20:30,SOUTHERN,NONE,1000 Block of HOWARD ST,-122.408326467599,37.778772335417,"(37.778772335417, -122.408326467599)",132
1.40092896E8,LARCENY/THEFT,ATTEMPTED THEFT FROM LOCKED VEHICLE,Friday,01/31/2014 08:00:00 AM +0000,20:35,BAYVIEW,NONE,700 Block of INNES AV,-122.372856172379,37.730487396171,"(37.730487396171, -122.372856172379)",133
1.40091622E8,LARCENY/THEFT,PETTY THEFT SHOPLIFTING,Friday,01/31/2014 08:00:00 AM +0000,12:00,SOUTHERN,"ARREST, CITED",700 Block of MISSION ST,-122.403890223654,37.784623766879,"(37.784623766879, -122.403890223654)",134
1.40092909E8,BURGLARY,"BURGLARY OF HOTEL ROOM, UNLAWFUL ENTRY",Friday,01/31/2014 08:00:00 AM +0000,14:09,SOUTHERN,NONE,100 Block of 7TH ST,-122.410531651041,37.7789328877476,"(37.7789328877476, -122.410531651041)",135
1.40092921E8,LARCENY/THEFT,PETTY THEFT FROM LOCKED AUTO,Friday,01/31/2014 08:00:00 AM +0000,21:15,SOUTHERN,NONE,0 Block of 8TH ST,-122.413945566161,37.7780328743159,"(37.7780328743159, -122.413945566161)",136
1.40092943E8,LARCENY/THEFT,GRAND THEFT FROM LOCKED AUTO,Friday,01/31/2014 08:00:00 AM +0000,20:00,NORTHERN,NONE,FRANKLIN ST / HICKORY ST,-122.421054311722,37.7756938836734,"(37.7756938836734, -122.421054311722)",137
1.40092971E8,MISSING PERSON,MISSING JUVENILE,Friday,01/31/2014 08:00:00 AM +0000,16:00,PARK,NONE,200 Block of SCOTT ST,-122.435476723258,37.7717659635478,"(37.7717659635478, -122.435476723258)",138
1.40092987E8,LARCENY/THEFT,PETTY THEFT FROM LOCKED AUTO,Friday,01/31/2014 08:00:00 AM +0000,21:00,NORTHERN,NONE,100 Block of ELM ST,-122.418994924145,37.7815808975774,"(37.7815808975774, -122.418994924145)",139
1.40093076E8,LARCENY/THEFT,PETTY THEFT FROM LOCKED AUTO,Friday,01/31/2014 08:00:00 AM +0000,20:30,NORTHERN,NONE,GEARY BL / STEINER ST,-122.4345637373,37.7841504915887,"(37.7841504915887, -122.4345637373)",140
1.40093101E8,RUNAWAY,RUNAWAY,Friday,01/31/2014 08:00:00 AM +0000,23:50,CENTRAL,NONE,2700 Block of TAYLOR ST,-122.415613155583,37.8079496038043,"(37.8079496038043, -122.415613155583)",141
1.40093101E8,MISSING PERSON,MISSING JUVENILE,Friday,01/31/2014 08:00:00 AM +0000,23:50,CENTRAL,NONE,2700 Block of TAYLOR ST,-122.415613155583,37.8079496038043,"(37.8079496038043, -122.415613155583)",142
1.40093123E8,OTHER OFFENSES,VIOLATION OF MUNICIPAL CODE,Friday,01/31/2014 08:00:00 AM +0000,23:40,MISSION,"ARREST, BOOKED",2000 Block of MISSION ST,-122.419646552795,37.7643487573176,"(37.7643487573176, -122.419646552795)",143
1.40093123E8,WARRANTS,WARRANT ARREST,Friday,01/31/2014 08:00:00 AM +0000,23:40,MISSION,"ARREST, BOOKED",2000 Block of MISSION ST,-122.419646552795,37.7643487573176,"(37.7643487573176, -122.419646552795)",144
1.40093769E8,VANDALISM,"MALICIOUS MISCHIEF, VANDALISM OF VEHICLES",Friday,01/31/2014 08:00:00 AM +0000,23:00,TARAVAL,NONE,500 Block of TARAVAL ST,-122.471397588891,37.7433459596327,"(37.7433459596327, -122.471397588891)",145
1.40093866E8,VEHICLE THEFT,STOLEN AUTOMOBILE,Friday,01/31/2014 08:00:00 AM +0000,15:00,BAYVIEW,NONE,1200 Block of PALOU AV,-122.383437292125,37.7297811838418,"(37.7297811838418, -122.383437292125)",146
1.40093888E8,OTHER OFFENSES,LOST/STOLEN LICENSE PLATE,Friday,01/31/2014 08:00:00 AM +0000,05:00,MISSION,NONE,400 Block of SOUTH VAN NESS AV,-122.417387301373,37.7655649685122,"(37.7655649685122, -122.417387301373)",147
1.40091597E8,LARCENY/THEFT,GRAND THEFT FROM LOCKED AUTO,Friday,01/31/2014 08:00:00 AM +0000,08:00,CENTRAL,NONE,TAYLOR ST / BUSH ST,-122.412078903704,37.7897391550377,"(37.7897391550377, -122.412078903704)",148
1.40093963E8,OTHER OFFENSES,LOST/STOLEN LICENSE PLATE,Friday,01/31/2014 08:00:00 AM +0000,08:00,TARAVAL,NONE,100 Block of GRANVILLE WY,-122.461428576836,37.7414017859615,"(37.7414017859615, -122.461428576836)",149
1.40091553E8,NON-CRIMINAL,"AIDED CASE, MENTAL DISTURBED",Friday,01/31/2014 08:00:00 AM +0000,12:35,NORTHERN,PSYCHOPATHIC CASE,2400 Block of SACRAMENTO ST,-122.433218217013,37.78990480189,"(37.78990480189, -122.433218217013)",150
1.4009408E8,VANDALISM,"MALICIOUS MISCHIEF, BREAKING WINDOWS",Friday,01/31/2014 08:00:00 AM +0000,20:00,TENDERLOIN,NONE,0 Block of GROVE ST,-122.415859883111,37.7787163114488,"(37.7787163114488, -122.415859883111)",151
1.40094933E8,LARCENY/THEFT,GRAND THEFT PICKPOCKET,Friday,01/31/2014 08:00:00 AM +0000,17:00,BAYVIEW,NONE,3RD ST / REVERE AV,-122.391522893042,37.7324323864471,"(37.7324323864471, -122.391522893042)",152
1.4009424E8,VEHICLE THEFT,STOLEN AUTOMOBILE,Friday,01/31/2014 08:00:00 AM +0000,21:40,NORTHERN,NONE,HAIGHT ST / BUCHANAN ST,-122.427159869872,37.7725259201526,"(37.7725259201526, -122.427159869872)",153
1.4009445E8,LARCENY/THEFT,PETTY THEFT FROM A BUILDING,Friday,01/31/2014 08:00:00 AM +0000,12:25,SOUTHERN,NONE,100 Block of 4TH ST,-122.403264344244,37.7838445698209,"(37.7838445698209, -122.403264344244)",154
1.40094563E8,NON-CRIMINAL,LOST PROPERTY,Friday,01/31/2014 08:00:00 AM +0000,16:00,MISSION,NONE,1700 Block of FOLSOM ST,-122.415572384842,37.7690407858283,"(37.7690407858283, -122.415572384842)",155
1.40095301E8,ROBBERY,"ROBBERY, BODILY FORCE",Friday,01/31/2014 08:00:00 AM +0000,20:30,BAYVIEW,NONE,100 Block of CAMERON WY,-122.38729759292,37.7211006864459,"(37.7211006864459, -122.38729759292)",156
1.40094717E8,ASSAULT,AGGRAVATED ASSAULT WITH A DEADLY WEAPON,Friday,01/31/2014 08:00:00 AM +0000,17:30,NORTHERN,NONE,MYRTLE ST / LARKIN ST,-122.417999278691,37.7856407526644,"(37.7856407526644, -122.417999278691)",157
1.40094723E8,ROBBERY,"ROBBERY ON THE STREET, STRONGARM",Friday,01/31/2014 08:00:00 AM +0000,19:40,NORTHERN,NONE,0 Block of SANCHEZ ST,-122.431313624984,37.7683384470202,"(37.7683384470202, -122.431313624984)",158
1.40096713E8,VEHICLE THEFT,STOLEN AUTOMOBILE,Friday,01/31/2014 08:00:00 AM +0000,17:00,INGLESIDE,NONE,300 Block of PERU AV,-122.42713039649,37.7275038519973,"(37.7275038519973, -122.42713039649)",159
1.46023702E8,NON-CRIMINAL,LOST PROPERTY,Friday,01/31/2014 08:00:00 AM +0000,23:00,NORTHERN,NONE,1200 Block of POLK ST,-122.420363988228,37.7882817928677,"(37.7882817928677, -122.420363988228)",160
1.46024738E8,LARCENY/THEFT,GRAND THEFT FROM LOCKED AUTO,Friday,01/31/2014 08:00:00 AM +0000,18:26,NORTHERN,NONE,SUTTER ST / STEINER ST,-122.434920174913,37.785875202228,"(37.785875202228, -122.434920174913)",161
1.400972E8,NON-CRIMINAL,"DEATH REPORT, CAUSE UNKNOWN",Friday,01/31/2014 08:00:00 AM +0000,00:01,INGLESIDE,NONE,100 Block of BROOKDALE AV,-122.421788477303,37.7121474168418,"(37.7121474168418, -122.421788477303)",162
1.46023655E8,LARCENY/THEFT,GRAND THEFT FROM LOCKED AUTO,Friday,01/31/2014 08:00:00 AM +0000,18:00,NORTHERN,NONE,GOUGH ST / FELL ST,-122.422791331024,37.7759512442749,"(37.7759512442749, -122.422791331024)",163
1.46023649E8,LARCENY/THEFT,GRAND THEFT FROM LOCKED AUTO,Friday,01/31/2014 08:00:00 AM +0000,19:30,NORTHERN,NONE,LAGUNA ST / POST ST,-122.428151140162,37.7857828233879,"(37.7857828233879, -122.428151140162)",164
1.46023633E8,LARCENY/THEFT,GRAND THEFT FROM LOCKED AUTO,Friday,01/31/2014 08:00:00 AM +0000,15:30,NORTHERN,NONE,2800 Block of VANNESS AV,-122.424597747074,37.8018061454686,"(37.8018061454686, -122.424597747074)",165
1.46023627E8,LARCENY/THEFT,GRAND THEFT FROM LOCKED AUTO,Friday,01/31/2014 08:00:00 AM +0000,20:30,NORTHERN,NONE,SACRAMENTO ST / FILLMORE ST,-122.434029993693,37.7898371293525,"(37.7898371293525, -122.434029993693)",166
1.46023611E8,LARCENY/THEFT,GRAND THEFT FROM LOCKED AUTO,Friday,01/31/2014 08:00:00 AM +0000,19:30,NORTHERN,NONE,GEARY BL / WEBSTER ST,-122.431206932079,37.7845681170336,"(37.7845681170336, -122.431206932079)",167
1.40098515E8,VEHICLE THEFT,STOLEN AUTOMOBILE,Friday,01/31/2014 08:00:00 AM +0000,16:30,MISSION,NONE,2000 Block of FOLSOM ST,-122.415153847215,37.7651363276788,"(37.7651363276788, -122.415153847215)",168
1.40098935E8,BURGLARY,"BURGLARY,STORE UNDER CONSTRUCTION, FORCIBLE ENTRY",Friday,01/31/2014 08:00:00 AM +0000,17:15,TENDERLOIN,NONE,200 Block of ELLIS ST,-122.409973312269,37.7851896203434,"(37.7851896203434, -122.409973312269)",169
1.40100433E8,DISORDERLY CONDUCT,"DISTURBING THE PEACE, SWEARING",Friday,01/31/2014 08:00:00 AM +0000,20:00,MISSION,NONE,300 Block of VALENCIA ST,-122.422107823453,37.7676108983393,"(37.7676108983393, -122.422107823453)",170
1.46023508E8,LARCENY/THEFT,PETTY THEFT OF PROPERTY,Friday,01/31/2014 08:00:00 AM +0000,09:00,TARAVAL,NONE,0 Block of FUENTE AV,-122.477986105837,37.7200614712858,"(37.7200614712858, -122.477986105837)",171
1.46023354E8,LARCENY/THEFT,GRAND THEFT FROM LOCKED AUTO,Friday,01/31/2014 08:00:00 AM +0000,22:30,INGLESIDE,NONE,100 Block of ARLETA AV,-122.406076746017,37.7138191743886,"(37.7138191743886, -122.406076746017)",172
1.46023348E8,VANDALISM,"MALICIOUS MISCHIEF, VANDALISM OF VEHICLES",Friday,01/31/2014 08:00:00 AM +0000,14:00,INGLESIDE,NONE,100 Block of CUVIER ST,-122.428515897147,37.7328578715126,"(37.7328578715126, -122.428515897147)",173
1.40095367E8,VEHICLE THEFT,STOLEN TRUCK,Friday,01/31/2014 08:00:00 AM +0000,22:00,PARK,NONE,2000 Block of MCALLISTER ST,-122.445157544698,37.7768223627517,"(37.7768223627517, -122.445157544698)",174
1.40091945E8,LARCENY/THEFT,GRAND THEFT FROM LOCKED AUTO,Friday,01/31/2014 08:00:00 AM +0000,13:45,BAYVIEW,NONE,700 Block of AMADOR ST,-122.384656478108,37.7458390502914,"(37.7458390502914, -122.384656478108)",175
1.40091973E8,LARCENY/THEFT,PETTY THEFT SHOPLIFTING,Friday,01/31/2014 08:00:00 AM +0000,13:45,TENDERLOIN,"ARREST, CITED",100 Block of STOCKTON ST,-122.406457149318,37.7871053771774,"(37.7871053771774, -122.406457149318)",176
1.40091989E8,ROBBERY,"ROBBERY ON THE STREET, STRONGARM",Friday,01/31/2014 08:00:00 AM +0000,15:15,MISSION,NONE,200 Block of ORANGE ST,-122.419852923355,37.7492499689686,"(37.7492499689686, -122.419852923355)",177
1.40091995E8,SUSPICIOUS OCC,SUSPICIOUS OCCURRENCE,Friday,01/31/2014 08:00:00 AM +0000,15:25,CENTRAL,NONE,1300 Block of BATTERY ST,-122.401946524153,37.8032574115051,"(37.8032574115051, -122.401946524153)",178
1.40092006E8,NON-CRIMINAL,LOST PROPERTY,Friday,01/31/2014 08:00:00 AM +0000,15:24,CENTRAL,NONE,PINE ST / JOICE ST,-122.40806332103,37.7912051249673,"(37.7912051249673, -122.40806332103)",179
1.46022657E8,LARCENY/THEFT,GRAND THEFT FROM LOCKED AUTO,Friday,01/31/2014 08:00:00 AM +0000,20:00,CENTRAL,NONE,1100 Block of LOMBARD ST,-122.42046561664,37.8019229174696,"(37.8019229174696, -122.42046561664)",180
1.46022641E8,LARCENY/THEFT,PETTY THEFT OF PROPERTY,Friday,01/31/2014 08:00:00 AM +0000,23:00,CENTRAL,NONE,1300 Block of CALIFORNIA ST,-122.417171973431,37.7910394848436,"(37.7910394848436, -122.417171973431)",181
1.46022629E8,LARCENY/THEFT,PETTY THEFT OF PROPERTY,Friday,01/31/2014 08:00:00 AM +0000,15:25,CENTRAL,NONE,CLAY ST / BATTERY ST,-122.40033450691,37.7950135264428,"(37.7950135264428, -122.40033450691)",182
1.46022613E8,LARCENY/THEFT,GRAND THEFT FROM LOCKED AUTO,Friday,01/31/2014 08:00:00 AM +0000,12:00,CENTRAL,NONE,LOMBARD ST / HYDE ST,-122.419616109671,37.8019942438049,"(37.8019942438049, -122.419616109671)",183
1.40095599E8,OTHER OFFENSES,LOST/STOLEN LICENSE PLATE,Friday,01/31/2014 08:00:00 AM +0000,22:30,TARAVAL,NONE,WAWONA ST / 47TH AV,-122.505293554362,37.7361327501488,"(37.7361327501488, -122.505293554362)",184
1.40092034E8,OTHER OFFENSES,MISCELLANEOUS INVESTIGATION,Friday,01/31/2014 08:00:00 AM +0000,15:20,SOUTHERN,NONE,0 Block of 12TH ST,-122.418650320466,37.7730298520684,"(37.7730298520684, -122.418650320466)",185
1.46022572E8,LARCENY/THEFT,GRAND THEFT FROM LOCKED AUTO,Friday,01/31/2014 08:00:00 AM +0000,20:00,TARAVAL,NONE,800 Block of NORIEGA ST,-122.472264867425,37.754321667899,"(37.754321667899, -122.472264867425)",186
1.46022425E8,LARCENY/THEFT,GRAND THEFT FROM LOCKED AUTO,Friday,01/31/2014 08:00:00 AM +0000,19:00,RICHMOND,NONE,GEARY BL / STANYAN ST,-122.456295846469,37.7813800880128,"(37.7813800880128, -122.456295846469)",187
1.46022419E8,LARCENY/THEFT,PETTY THEFT OF PROPERTY,Friday,01/31/2014 08:00:00 AM +0000,17:00,PARK,NONE,1800 Block of HAIGHT ST,-122.452622752318,37.7693006985175,"(37.7693006985175, -122.452622752318)",188
1.40092119E8,NON-CRIMINAL,FOUND PROPERTY,Friday,01/31/2014 08:00:00 AM +0000,16:12,CENTRAL,NONE,100 Block of GEARY ST,-122.405089818003,37.7877255255163,"(37.7877255255163, -122.405089818003)",189
1.46022378E8,LARCENY/THEFT,GRAND THEFT FROM LOCKED AUTO,Friday,01/31/2014 08:00:00 AM +0000,18:30,CENTRAL,NONE,300 Block of POST ST,-122.407309751547,37.7883971527512,"(37.7883971527512, -122.407309751547)",190
1.46022362E8,LARCENY/THEFT,GRAND THEFT FROM LOCKED AUTO,Friday,01/31/2014 08:00:00 AM +0000,13:55,CENTRAL,NONE,300 Block of SUTTER ST,-122.405894420706,37.7896023539705,"(37.7896023539705, -122.405894420706)",191
1.40092131E8,NON-CRIMINAL,LOST PROPERTY,Friday,01/31/2014 08:00:00 AM +0000,14:00,MISSION,NONE,VALENCIA ST / 22ND ST,-122.420966200659,37.7552939346637,"(37.7552939346637, -122.420966200659)",192
1.40092153E8,MISSING PERSON,FOUND PERSON,Friday,01/31/2014 08:00:00 AM +0000,16:10,SOUTHERN,NONE,600 Block of BRYANT ST,-122.398421304837,37.7792362839579,"(37.7792362839579, -122.398421304837)",193
1.40092238E8,LARCENY/THEFT,PETTY THEFT OF PROPERTY,Friday,01/31/2014 08:00:00 AM +0000,11:30,RICHMOND,NONE,400 Block of 6TH AV,-122.464337779551,37.7798376142327,"(37.7798376142327, -122.464337779551)",194
1.40092266E8,OTHER OFFENSES,MISCELLANEOUS INVESTIGATION,Friday,01/31/2014 08:00:00 AM +0000,17:10,INGLESIDE,NONE,600 Block of PORTOLA DR,-122.452341015161,37.7451702876717,"(37.7451702876717, -122.452341015161)",195
1.40108807E8,FRAUD,"FORGERY, CREDIT CARD",Friday,01/31/2014 08:00:00 AM +0000,21:00,CENTRAL,NONE,500 Block of SUTTER ST,-122.409020671439,37.7892047212276,"(37.7892047212276, -122.409020671439)",196
1.40092294E8,NON-CRIMINAL,"AIDED CASE, MENTAL DISTURBED",Friday,01/31/2014 08:00:00 AM +0000,16:47,TARAVAL,PSYCHOPATHIC CASE,2100 Block of 47TH AV,-122.470497836991,37.7476337109244,"(37.7476337109244, -122.470497836991)",197
1.40092307E8,NON-CRIMINAL,FOUND PROPERTY,Friday,01/31/2014 08:00:00 AM +0000,17:00,SOUTHERN,NONE,MISSION ST / 6TH ST,-122.408710606663,37.7809706722053,"(37.7809706722053, -122.408710606663)",198
1.40092335E8,VANDALISM,"MALICIOUS MISCHIEF, BREAKING WINDOWS WITH BB GUN",Friday,01/31/2014 08:00:00 AM +0000,17:40,CENTRAL,NONE,2800 Block of TAYLOR ST,-122.415887451278,37.8089513016119,"(37.8089513016119, -122.415887451278)",199
1.40092357E8,BURGLARY,"BURGLARY OF RESIDENCE, FORCIBLE ENTRY",Friday,01/31/2014 08:00:00 AM +0000,11:30,TARAVAL,NONE,1900 Block of 45TH AV,-122.470783379342,37.7509647204766,"(37.7509647204766, -122.470783379342)",200
1.40092363E8,NON-CRIMINAL,LOST PROPERTY,Friday,01/31/2014 08:00:00 AM +0000,12:30,CENTRAL,NONE,2800 Block of TAYLOR ST,-122.415887451278,37.8089513016119,"(37.8089513016119, -122.415887451278)",201
1.40092385E8,NON-CRIMINAL,FIRE REPORT,Friday,01/31/2014 08:00:00 AM +0000,18:00,BAYVIEW,NONE,1300 Block of SHAFTER AV,-122.386545825887,37.7285347791662,"(37.7285347791662, -122.386545825887)",202
1.40092391E8,TRESPASS,TRESPASSING,Friday,01/31/2014 08:00:00 AM +0000,18:14,NORTHERN,"ARREST, BOOKED",800 Block of TURK ST,-122.422308650289,37.7817826133628,"(37.7817826133628, -122.422308650289)",203
1.40092391E8,OTHER OFFENSES,VIOLATION OF MUNICIPAL CODE,Friday,01/31/2014 08:00:00 AM +0000,18:14,NORTHERN,"ARREST, BOOKED",800 Block of TURK ST,-122.422308650289,37.7817826133628,"(37.7817826133628, -122.422308650289)",204
1.40092432E8,LARCENY/THEFT,ATTEMPTED THEFT FROM LOCKED VEHICLE,Friday,01/31/2014 08:00:00 AM +0000,01:00,INGLESIDE,NONE,OCEAN AV / GENEVA AV,-122.452330120871,37.7230787059359,"(37.7230787059359, -122.452330120871)",205
1.40092501E8,NON-CRIMINAL,FOUND PROPERTY,Friday,01/31/2014 08:00:00 AM +0000,19:25,CENTRAL,NONE,600 Block of SACRAMENTO ST,-122.404248917699,37.7937269899555,"(37.7937269899555, -122.404248917699)",206
1.40118157E8,FRAUD,"CREDIT CARD, THEFT BY USE OF",Friday,01/31/2014 08:00:00 AM +0000,00:01,TARAVAL,NONE,2100 Block of 35TH AV,-122.492971912893,37.7462252514848,"(37.7462252514848, -122.492971912893)",207
1.40093305E8,NON-CRIMINAL,TARASOFF REPORT,Friday,01/31/2014 08:00:00 AM +0000,23:30,MISSION,PSYCHOPATHIC CASE,1000 Block of POTRERO AV,-122.406656623063,37.7568256145423,"(37.7568256145423, -122.406656623063)",208
1.46024421E8,LARCENY/THEFT,GRAND THEFT FROM LOCKED AUTO,Friday,01/31/2014 08:00:00 AM +0000,18:30,SOUTHERN,NONE,11TH ST / DIVISION ST,-122.410932750782,37.769411384942,"(37.769411384942, -122.410932750782)",209
1.46024318E8,LARCENY/THEFT,GRAND THEFT FROM UNLOCKED AUTO,Friday,01/31/2014 08:00:00 AM +0000,15:30,CENTRAL,NONE,300 Block of POST ST,-122.407309751547,37.7883971527512,"(37.7883971527512, -122.407309751547)",210
1.46024227E8,LARCENY/THEFT,GRAND THEFT OF PROPERTY,Friday,01/31/2014 08:00:00 AM +0000,08:00,RICHMOND,NONE,0 Block of LUPINE AV,-122.448993137103,37.7843625243174,"(37.7843625243174, -122.448993137103)",211
1.40097545E8,OTHER OFFENSES,LOST/STOLEN LICENSE PLATE,Friday,01/31/2014 08:00:00 AM +0000,16:00,BAYVIEW,NONE,HOLLISTER AV / 3RD ST,-122.395946406663,37.7217169542793,"(37.7217169542793, -122.395946406663)",212
1.40092642E8,LARCENY/THEFT,ATTEMPTED THEFT FROM A BUILDING,Friday,01/31/2014 08:00:00 AM +0000,19:40,SOUTHERN,NONE,0 Block of 6TH ST,-122.409719425943,37.7817250233729,"(37.7817250233729, -122.409719425943)",213
1.40092692E8,BURGLARY,"BURGLARY OF STORE, UNLAWFUL ENTRY",Friday,01/31/2014 08:00:00 AM +0000,18:45,TENDERLOIN,"ARREST, BOOKED",0 Block of OFARRELL ST,-122.405795379675,37.7867246331696,"(37.7867246331696, -122.405795379675)",214
1.40092692E8,OTHER OFFENSES,POSSESSION OF BURGLARY TOOLS,Friday,01/31/2014 08:00:00 AM +0000,18:45,TENDERLOIN,"ARREST, BOOKED",0 Block of OFARRELL ST,-122.405795379675,37.7867246331696,"(37.7867246331696, -122.405795379675)",215
1.40092692E8,WARRANTS,ENROUTE TO DEPARTMENT OF CORRECTIONS,Friday,01/31/2014 08:00:00 AM +0000,18:45,TENDERLOIN,"ARREST, BOOKED",0 Block of OFARRELL ST,-122.405795379675,37.7867246331696,"(37.7867246331696, -122.405795379675)",216
1.40092705E8,MISSING PERSON,MISSING JUVENILE,Friday,01/31/2014 08:00:00 AM +0000,14:30,PARK,NONE,500 Block of PARNASSUS AV,-122.457892137714,37.7634266670342,"(37.7634266670342, -122.457892137714)",217
1.4602174E8,LARCENY/THEFT,GRAND THEFT FROM LOCKED AUTO,Friday,01/31/2014 08:00:00 AM +0000,02:00,NORTHERN,NONE,0 Block of BELCHER ST,-122.430089443155,37.7691837710381,"(37.7691837710381, -122.430089443155)",218
1.40099024E8,VANDALISM,"MALICIOUS MISCHIEF, GRAFFITI",Friday,01/31/2014 08:00:00 AM +0000,00:01,BAYVIEW,NONE,1800 Block of MARIN ST,-122.393980542242,37.7484788588647,"(37.7484788588647, -122.393980542242)",219
1.40120055E8,NON-CRIMINAL,LOST PROPERTY,Friday,01/31/2014 08:00:00 AM +0000,00:01,TENDERLOIN,NONE,200 Block of MCALLISTER ST,-122.416136704022,37.7806485116564,"(37.7806485116564, -122.416136704022)",220
1.40097965E8,NON-CRIMINAL,FOUND PROPERTY,Friday,01/31/2014 08:00:00 AM +0000,17:00,BAYVIEW,NONE,BAY SHORE BL / INDUSTRIAL ST,-122.406910767793,37.7379666158769,"(37.7379666158769, -122.406910767793)",221
1.46021693E8,LARCENY/THEFT,GRAND THEFT FROM LOCKED AUTO,Friday,01/31/2014 08:00:00 AM +0000,15:30,TARAVAL,NONE,LAKE MERCED BL / FONT BL,-122.485073656871,37.7239983808977,"(37.7239983808977, -122.485073656871)",222
1.46021687E8,LARCENY/THEFT,GRAND THEFT FROM LOCKED AUTO,Friday,01/31/2014 08:00:00 AM +0000,10:30,NORTHERN,NONE,3400 Block of BAKER ST,-122.446723773942,37.8025553837556,"(37.8025553837556, -122.446723773942)",223
1.40091393E8,NON-CRIMINAL,"AIDED CASE, MENTAL DISTURBED",Friday,01/31/2014 08:00:00 AM +0000,11:45,SOUTHERN,PSYCHOPATHIC CASE,700 Block of MARKET ST,-122.404120901101,37.787053132482,"(37.787053132482, -122.404120901101)",224
1.46021665E8,LARCENY/THEFT,GRAND THEFT FROM UNLOCKED AUTO,Friday,01/31/2014 08:00:00 AM +0000,17:40,TARAVAL,NONE,ULLOA ST / CLAREMONT BL,-122.465037066383,37.7406512722385,"(37.7406512722385, -122.465037066383)",225
1.40091371E8,NON-CRIMINAL,"AIDED CASE, MENTAL DISTURBED",Friday,01/31/2014 08:00:00 AM +0000,08:36,NORTHERN,PSYCHOPATHIC CASE,1300 Block of POST ST,-122.423833484482,37.7863586955549,"(37.7863586955549, -122.423833484482)",226
1.40091337E8,NON-CRIMINAL,AIDED CASE,Friday,01/31/2014 08:00:00 AM +0000,09:00,TARAVAL,LOCATED,0 Block of DARIEN WY,-122.471120269018,37.7318935166108,"(37.7318935166108, -122.471120269018)",227
1.40091315E8,NON-CRIMINAL,FOUND PROPERTY,Friday,01/31/2014 08:00:00 AM +0000,08:00,RICHMOND,NONE,4200 Block of GEARY BL,-122.464448105534,37.7809004519829,"(37.7809004519829, -122.464448105534)",228
1.40097664E8,LARCENY/THEFT,PETTY THEFT FROM A BUILDING,Friday,01/31/2014 08:00:00 AM +0000,22:30,TARAVAL,NONE,400 Block of SERRANO DR,-122.481515092646,37.7190243811433,"(37.7190243811433, -122.481515092646)",229
1.40091252E8,LARCENY/THEFT,PETTY THEFT FROM LOCKED AUTO,Friday,01/31/2014 08:00:00 AM +0000,09:15,TENDERLOIN,NONE,LARKIN ST / ELLIS ST,-122.417710344726,37.7842362877887,"(37.7842362877887, -122.417710344726)",230
1.40092733E8,ASSAULT,BATTERY,Friday,01/31/2014 08:00:00 AM +0000,20:36,SOUTHERN,NONE,900 Block of MARKET ST,-122.408724587923,37.7835173335295,"(37.7835173335295, -122.408724587923)",231
1.40092733E8,LARCENY/THEFT,PETTY THEFT FROM A BUILDING,Friday,01/31/2014 08:00:00 AM +0000,20:36,SOUTHERN,NONE,900 Block of MARKET ST,-122.408724587923,37.7835173335295,"(37.7835173335295, -122.408724587923)",232
1.40094159E8,MISSING PERSON,MISSING ADULT,Friday,01/31/2014 08:00:00 AM +0000,15:00,PARK,LOCATED,0 Block of SHRADER ST,-122.452868550073,37.7745110732972,"(37.7745110732972, -122.452868550073)",233
1.40094159E8,MISSING PERSON,FOUND PERSON,Friday,01/31/2014 08:00:00 AM +0000,15:00,PARK,LOCATED,0 Block of SHRADER ST,-122.452868550073,37.7745110732972,"(37.7745110732972, -122.452868550073)",234
1.40096876E8,NON-CRIMINAL,LOST PROPERTY,Friday,01/31/2014 08:00:00 AM +0000,10:45,INGLESIDE,NONE,0 Block of MIRABEL AV,-122.416086093791,37.7467420503129,"(37.7467420503129, -122.416086093791)",235
1.40096832E8,NON-CRIMINAL,LOST PROPERTY,Friday,01/31/2014 08:00:00 AM +0000,19:00,MISSION,NONE,2900 Block of 16TH ST,-122.417509657202,37.7652141127558,"(37.7652141127558, -122.417509657202)",236
1.40092476E8,WARRANTS,WARRANT ARREST,Friday,01/31/2014 08:00:00 AM +0000,16:47,SOUTHERN,"ARREST, BOOKED",7TH ST / MARKET ST,-122.412515341356,37.7804777480508,"(37.7804777480508, -122.412515341356)",237
1.4009123E8,TRESPASS,TRESPASSING,Friday,01/31/2014 08:00:00 AM +0000,09:45,CENTRAL,"ARREST, CITED",700 Block of KEARNY ST,-122.404861643051,37.7950029644252,"(37.7950029644252, -122.404861643051)",238
1.40091224E8,LARCENY/THEFT,"LOST PROPERTY, PETTY THEFT",Friday,01/31/2014 08:00:00 AM +0000,09:51,MISSION,NONE,4200 Block of 19TH ST,-122.436661512675,37.7607566230302,"(37.7607566230302, -122.436661512675)",239
1.40091224E8,FRAUD,FALSE ID TO PEACE OFFICER,Friday,01/31/2014 08:00:00 AM +0000,09:51,MISSION,NONE,4200 Block of 19TH ST,-122.436661512675,37.7607566230302,"(37.7607566230302, -122.436661512675)",240
1.40091183E8,MISSING PERSON,FOUND PERSON,Friday,01/31/2014 08:00:00 AM +0000,08:15,NORTHERN,LOCATED,1300 Block of GOLDEN GATE AV,-122.432849781883,37.7794157493901,"(37.7794157493901, -122.432849781883)",241
1.40091183E8,MISSING PERSON,MISSING ADULT,Friday,01/31/2014 08:00:00 AM +0000,08:15,NORTHERN,LOCATED,1300 Block of GOLDEN GATE AV,-122.432849781883,37.7794157493901,"(37.7794157493901, -122.432849781883)",242
1.40096791E8,VANDALISM,"MALICIOUS MISCHIEF, VANDALISM OF VEHICLES",Friday,01/31/2014 08:00:00 AM +0000,20:30,RICHMOND,NONE,ANZA ST / 21ST AV,-122.480310855209,37.7783585566999,"(37.7783585566999, -122.480310855209)",243
1.40103631E8,LARCENY/THEFT,GRAND THEFT FROM A BUILDING,Friday,01/31/2014 08:00:00 AM +0000,12:00,SOUTHERN,NONE,900 Block of BRANNAN ST,-122.40601143368,37.7708819661571,"(37.7708819661571, -122.40601143368)",244
1.40123952E8,LARCENY/THEFT,GRAND THEFT BICYCLE,Friday,01/31/2014 08:00:00 AM +0000,18:30,SOUTHERN,NONE,500 Block of BRYANT ST,-122.396362941452,37.7807567112299,"(37.7807567112299, -122.396362941452)",245
1.40091149E8,ROBBERY,"ROBBERY, BODILY FORCE",Friday,01/31/2014 08:00:00 AM +0000,05:30,SOUTHERN,NONE,MISSION ST / 5TH ST,-122.406481972743,37.7827317884887,"(37.7827317884887, -122.406481972743)",246
1.40106425E8,LARCENY/THEFT,PETTY THEFT FROM A BUILDING,Friday,01/31/2014 08:00:00 AM +0000,08:00,MISSION,NONE,2100 Block of FOLSOM ST,-122.415146369599,37.7631642082831,"(37.7631642082831, -122.415146369599)",247
1.46026461E8,NON-CRIMINAL,LOST PROPERTY,Friday,01/31/2014 08:00:00 AM +0000,21:15,CENTRAL,NONE,200 Block of JEFFERSON ST,-122.417235911207,37.8080719862235,"(37.8080719862235, -122.417235911207)",248
1.40106538E8,MISSING PERSON,MISSING ADULT,Friday,01/31/2014 08:00:00 AM +0000,11:00,NORTHERN,LOCATED,200 Block of HAIGHT ST,-122.425774112272,37.7727351675696,"(37.7727351675696, -122.425774112272)",249
1.40106538E8,MISSING PERSON,FOUND PERSON,Friday,01/31/2014 08:00:00 AM +0000,11:00,NORTHERN,LOCATED,200 Block of HAIGHT ST,-122.425774112272,37.7727351675696,"(37.7727351675696, -122.425774112272)",250
1.40107213E8,ASSAULT,INFLICT INJURY ON COHABITEE,Friday,01/31/2014 08:00:00 AM +0000,12:00,BAYVIEW,NONE,0 Block of GARLINGTON CT,-122.384249068652,37.732631799534,"(37.732631799534, -122.384249068652)",251
1.40107213E8,TRESPASS,TRESPASSING,Friday,01/31/2014 08:00:00 AM +0000,12:00,BAYVIEW,NONE,0 Block of GARLINGTON CT,-122.384249068652,37.732631799534,"(37.732631799534, -122.384249068652)",252
1.40107213E8,VANDALISM,"MALICIOUS MISCHIEF, VANDALISM",Friday,01/31/2014 08:00:00 AM +0000,12:00,BAYVIEW,NONE,0 Block of GARLINGTON CT,-122.384249068652,37.732631799534,"(37.732631799534, -122.384249068652)",253
1.46026502E8,LARCENY/THEFT,GRAND THEFT FROM UNLOCKED AUTO,Friday,01/31/2014 08:00:00 AM +0000,07:00,CENTRAL,NONE,700 Block of GREEN ST,-122.411589770558,37.7991491876609,"(37.7991491876609, -122.411589770558)",254
1.40096638E8,BURGLARY,"BURGLARY OF RESIDENCE, UNLAWFUL ENTRY",Friday,01/31/2014 08:00:00 AM +0000,16:00,NORTHERN,NONE,1700 Block of BEACH ST,-122.437541977638,37.8041839689129,"(37.8041839689129, -122.437541977638)",255
1.4009107E8,WARRANTS,WARRANT ARREST,Friday,01/31/2014 08:00:00 AM +0000,08:51,MISSION,NONE,1000 Block of POTRERO AV,-122.406656623063,37.7568256145423,"(37.7568256145423, -122.406656623063)",256
1.40091042E8,TRESPASS,TRESPASSING,Friday,01/31/2014 08:00:00 AM +0000,09:05,CENTRAL,"ARREST, BOOKED",400 Block of STOCKTON ST,-122.40700591265,37.7898710451762,"(37.7898710451762, -122.40700591265)",257
1.40091036E8,KIDNAPPING,CHILD STEALING,Friday,01/31/2014 08:00:00 AM +0000,09:00,BAYVIEW,NONE,200 Block of WILLIAMS AV,-122.397408700897,37.7299085069905,"(37.7299085069905, -122.397408700897)",258
1.40095696E8,VANDALISM,"MALICIOUS MISCHIEF, TIRE SLASHING",Friday,01/31/2014 08:00:00 AM +0000,19:00,TARAVAL,NONE,2100 Block of 17TH AV,-122.466287573732,37.7489664096663,"(37.7489664096663, -122.466287573732)",259
1.40095226E8,VEHICLE THEFT,ATTEMPTED STOLEN VEHICLE,Friday,01/31/2014 08:00:00 AM +0000,17:00,INGLESIDE,NONE,500 Block of ELLINGTON AV,-122.449216023559,37.7104162400461,"(37.7104162400461, -122.449216023559)",260
1.40095226E8,LARCENY/THEFT,PETTY THEFT FROM LOCKED AUTO,Friday,01/31/2014 08:00:00 AM +0000,17:00,INGLESIDE,NONE,500 Block of ELLINGTON AV,-122.449216023559,37.7104162400461,"(37.7104162400461, -122.449216023559)",261
1.4009144E8,VANDALISM,"MALICIOUS MISCHIEF, VANDALISM OF VEHICLES",Friday,01/31/2014 08:00:00 AM +0000,08:00,SOUTHERN,NONE,200 Block of INTERSTATE80 HY,-122.370740926948,37.8170463264224,"(37.8170463264224, -122.370740926948)",262
1.40091406E8,OTHER OFFENSES,INDECENT EXPOSURE,Friday,01/31/2014 08:00:00 AM +0000,11:20,MISSION,NONE,1800 Block of FOLSOM ST,-122.415656120604,37.7685095051051,"(37.7685095051051, -122.415656120604)",263
1.4010391E8,LARCENY/THEFT,GRAND THEFT BICYCLE,Friday,01/31/2014 08:00:00 AM +0000,09:30,CENTRAL,NONE,300 Block of BATTERY ST,-122.400108444834,37.7945998927281,"(37.7945998927281, -122.400108444834)",264
1.40090793E8,WARRANTS,WARRANT ARREST,Friday,01/31/2014 08:00:00 AM +0000,05:21,NORTHERN,"ARREST, BOOKED",1500 Block of VANNESS AV,-122.422184051101,37.7894199044341,"(37.7894199044341, -122.422184051101)",265
1.40090787E8,NON-CRIMINAL,TARASOFF REPORT,Friday,01/31/2014 08:00:00 AM +0000,04:21,MISSION,PSYCHOPATHIC CASE,1000 Block of POTRERO AV,-122.406656623063,37.7568256145423,"(37.7568256145423, -122.406656623063)",266
1.40092705E8,MISSING PERSON,FOUND PERSON,Friday,01/31/2014 08:00:00 AM +0000,14:30,PARK,NONE,500 Block of PARNASSUS AV,-122.457892137714,37.7634266670342,"(37.7634266670342, -122.457892137714)",267
1.40090709E8,SUSPICIOUS OCC,SUSPICIOUS OCCURRENCE,Friday,01/31/2014 08:00:00 AM +0000,02:54,BAYVIEW,NONE,BAY SHORE BL / OAKDALE AV,-122.405242467114,37.7430506903112,"(37.7430506903112, -122.405242467114)",268
1.40093496E8,LARCENY/THEFT,GRAND THEFT FROM LOCKED AUTO,Friday,01/31/2014 08:00:00 AM +0000,22:15,SOUTHERN,"ARREST, BOOKED",800 Block of HARRISON ST,-122.399919754915,37.780505917726,"(37.780505917726, -122.399919754915)",269
1.40090696E8,TRESPASS,TRESPASSING,Friday,01/31/2014 08:00:00 AM +0000,02:44,SOUTHERN,NONE,900 Block of FOLSOM ST,-122.40503207338,37.7791239876454,"(37.7791239876454, -122.40503207338)",270
1.40090624E8,WARRANTS,WARRANT ARREST,Friday,01/31/2014 08:00:00 AM +0000,01:15,NORTHERN,"ARREST, BOOKED",600 Block of LAGUNA ST,-122.426414079501,37.7769832775621,"(37.7769832775621, -122.426414079501)",271
1.40090618E8,ROBBERY,"ROBBERY ON THE STREET, STRONGARM",Friday,01/31/2014 08:00:00 AM +0000,01:30,PARK,NONE,1300 Block of HAYES ST,-122.439239753905,37.774772564104,"(37.774772564104, -122.439239753905)",272
1.40093377E8,BURGLARY,"BURGLARY OF APARTMENT HOUSE, UNLAWFUL ENTRY",Friday,01/31/2014 08:00:00 AM +0000,07:45,PARK,NONE,600 Block of DIVISADERO ST,-122.438015115217,37.7753599265602,"(37.7753599265602, -122.438015115217)",273
1.40090577E8,OTHER OFFENSES,POSSESSION OF FIRECRACKERS,Friday,01/31/2014 08:00:00 AM +0000,00:55,CENTRAL,"ARREST, CITED",900 Block of GRANT AV,-122.406467979659,37.7953025482054,"(37.7953025482054, -122.406467979659)",274
1.40090555E8,WARRANTS,WARRANT ARREST,Friday,01/31/2014 08:00:00 AM +0000,00:20,TENDERLOIN,"ARREST, BOOKED",100 Block of EDDY ST,-122.40983181372,37.7843160924435,"(37.7843160924435, -122.40983181372)",275
1.40093349E8,VANDALISM,"MALICIOUS MISCHIEF, BREAKING WINDOWS",Friday,01/31/2014 08:00:00 AM +0000,18:00,TENDERLOIN,NONE,100 Block of EDDY ST,-122.40975321354,37.784258225855,"(37.784258225855, -122.40975321354)",276
1.40093286E8,KIDNAPPING,FALSE IMPRISONMENT,Friday,01/31/2014 08:00:00 AM +0000,23:30,CENTRAL,"ARREST, BOOKED",300 Block of POWELL ST,-122.40833353294,37.7876829824756,"(37.7876829824756, -122.40833353294)",277
1.40093286E8,ASSAULT,INFLICT INJURY ON COHABITEE,Friday,01/31/2014 08:00:00 AM +0000,23:30,CENTRAL,"ARREST, BOOKED",300 Block of POWELL ST,-122.40833353294,37.7876829824756,"(37.7876829824756, -122.40833353294)",278
1.46025491E8,LARCENY/THEFT,GRAND THEFT FROM LOCKED AUTO,Friday,01/31/2014 08:00:00 AM +0000,09:00,BAYVIEW,NONE,NEWCOMB AV / LANE ST,-122.387911252085,37.7341714275462,"(37.7341714275462, -122.387911252085)",279
1.40093286E8,"SEX OFFENSES, FORCIBLE",SEXUAL BATTERY,Friday,01/31/2014 08:00:00 AM +0000,23:30,CENTRAL,"ARREST, BOOKED",300 Block of POWELL ST,-122.40833353294,37.7876829824756,"(37.7876829824756, -122.40833353294)",280
1.46025526E8,LARCENY/THEFT,GRAND THEFT FROM LOCKED AUTO,Friday,01/31/2014 08:00:00 AM +0000,03:27,BAYVIEW,NONE,3RD ST / KEY AV,-122.396954396252,37.7194784623737,"(37.7194784623737, -122.396954396252)",281
1.46025554E8,LARCENY/THEFT,GRAND THEFT FROM UNLOCKED AUTO,Friday,01/31/2014 08:00:00 AM +0000,20:01,PARK,NONE,HAYES ST / PIERCE ST,-122.434485055659,37.7754165687704,"(37.7754165687704, -122.434485055659)",282
1.40093173E8,VEHICLE THEFT,STOLEN AUTOMOBILE,Friday,01/31/2014 08:00:00 AM +0000,00:01,INGLESIDE,"ARREST, BOOKED",300 Block of LISBON ST,-122.433194620933,37.7227572992665,"(37.7227572992665, -122.433194620933)",283
1.4009306E8,NON-CRIMINAL,LOST PROPERTY,Friday,01/31/2014 08:00:00 AM +0000,20:52,NORTHERN,NONE,FRANKLIN ST / FELL ST,-122.421149407714,37.7761593097668,"(37.7761593097668, -122.421149407714)",284
1.40093032E8,VANDALISM,"MALICIOUS MISCHIEF, BREAKING WINDOWS",Friday,01/31/2014 08:00:00 AM +0000,23:18,NORTHERN,"ARREST, BOOKED",900 Block of HAYES ST,-122.431716713249,37.7758011909308,"(37.7758011909308, -122.431716713249)",285
1.4009301E8,BURGLARY,"BURGLARY, HOT PROWL, UNLAWFUL ENTRY",Friday,01/31/2014 08:00:00 AM +0000,22:40,TARAVAL,NONE,1900 Block of 42ND AV,-122.501039171537,37.7500446152806,"(37.7500446152806, -122.501039171537)",286
1.46025855E8,NON-CRIMINAL,LOST PROPERTY,Friday,01/31/2014 08:00:00 AM +0000,16:53,SOUTHERN,NONE,300 Block of KING ST,-122.394107097495,37.7763326818625,"(37.7763326818625, -122.394107097495)",287
1.40092965E8,BURGLARY,"BURGLARY OF RESIDENCE, FORCIBLE ENTRY",Friday,01/31/2014 08:00:00 AM +0000,11:00,INGLESIDE,NONE,300 Block of ALPHA ST,-122.404888112902,37.7132223396726,"(37.7132223396726, -122.404888112902)",288
1.40092915E8,OTHER OFFENSES,"DRIVERS LICENSE, SUSPENDED OR REVOKED",Friday,01/31/2014 08:00:00 AM +0000,22:12,MISSION,"ARREST, CITED",2600 Block of MISSION ST,-122.418596031067,37.754275727284,"(37.754275727284, -122.418596031067)",289
1.46026762E8,LARCENY/THEFT,GRAND THEFT FROM LOCKED AUTO,Friday,01/31/2014 08:00:00 AM +0000,18:45,SOUTHERN,NONE,0 Block of GOUGH ST,-122.421750398652,37.772835629349,"(37.772835629349, -122.421750398652)",290
1.40092874E8,TRESPASS,TRESPASSING,Friday,01/31/2014 08:00:00 AM +0000,19:40,SOUTHERN,"ARREST, CITED",800 Block of MARKET ST,-122.406659517434,37.7850491022697,"(37.7850491022697, -122.406659517434)",291
1.40092595E8,OTHER OFFENSES,POSSESSION OF BURGLARY TOOLS,Friday,01/31/2014 08:00:00 AM +0000,18:54,SOUTHERN,JUVENILE CITED,800 Block of MARKET ST,-122.407036790381,37.78475328357,"(37.78475328357, -122.407036790381)",292
1.40092595E8,BURGLARY,"BURGLARY OF STORE, UNLAWFUL ENTRY",Friday,01/31/2014 08:00:00 AM +0000,18:54,SOUTHERN,JUVENILE CITED,800 Block of MARKET ST,-122.407036790381,37.78475328357,"(37.78475328357, -122.407036790381)",293
1.40089837E8,VANDALISM,"MALICIOUS MISCHIEF, BREAKING WINDOWS",Thursday,01/30/2014 08:00:00 AM +0000,19:00,BAYVIEW,NONE,0 Block of HARBOR RD,-122.37729228197,37.731140827416,"(37.731140827416, -122.37729228197)",294
1.40088334E8,NON-CRIMINAL,"AIDED CASE, MENTAL DISTURBED",Thursday,01/30/2014 08:00:00 AM +0000,11:10,NORTHERN,PSYCHOPATHIC CASE,400 Block of HAIGHT ST,-122.428836243772,37.7723449097434,"(37.7723449097434, -122.428836243772)",295
1.46027118E8,LARCENY/THEFT,GRAND THEFT OF PROPERTY,Thursday,01/30/2014 08:00:00 AM +0000,17:25,TENDERLOIN,NONE,ELLIS ST / POWELL ST,-122.407854234538,37.7854922044602,"(37.7854922044602, -122.407854234538)",296
1.40091296E8,BURGLARY,"BURGLARY,RESIDENCE UNDER CONSTRT, UNLAWFUL ENTRY",Thursday,01/30/2014 08:00:00 AM +0000,16:30,MISSION,NONE,1100 Block of DIAMOND ST,-122.436173843282,37.7484233777112,"(37.7484233777112, -122.436173843282)",297
1.4009128E8,BURGLARY,"BURGLARY, FORCIBLE ENTRY",Thursday,01/30/2014 08:00:00 AM +0000,20:15,MISSION,NONE,500 Block of SOUTH VAN NESS AV,-122.41743773895,37.7650961892945,"(37.7650961892945, -122.41743773895)",298
1.40091199E8,LARCENY/THEFT,PETTY THEFT FROM LOCKED AUTO,Thursday,01/30/2014 08:00:00 AM +0000,15:00,NORTHERN,NONE,FRANKLIN ST / POST ST,-122.423217673913,37.7864017954155,"(37.7864017954155, -122.423217673913)",299
1.40090997E8,KIDNAPPING,FALSE IMPRISONMENT,Thursday,01/30/2014 08:00:00 AM +0000,20:30,INGLESIDE,NONE,5600 Block of MISSION ST,-122.4470734772,37.711052817734,"(37.711052817734, -122.4470734772)",300
1.40090997E8,ASSAULT,BATTERY,Thursday,01/30/2014 08:00:00 AM +0000,20:30,INGLESIDE,NONE,5600 Block of MISSION ST,-122.4470734772,37.711052817734,"(37.711052817734, -122.4470734772)",301
1.40090931E8,LARCENY/THEFT,ATTEMPTED THEFT FROM LOCKED VEHICLE,Thursday,01/30/2014 08:00:00 AM +0000,19:00,MISSION,NONE,13TH ST / HARRISON ST,-122.413388483267,37.7695006538677,"(37.7695006538677, -122.413388483267)",302
1.40090163E8,LARCENY/THEFT,GRAND THEFT FROM LOCKED AUTO,Thursday,01/30/2014 08:00:00 AM +0000,20:30,RICHMOND,NONE,200 Block of 4TH AV,-122.462331143081,37.7831727526535,"(37.7831727526535, -122.462331143081)",303
1.40090157E8,LARCENY/THEFT,PETTY THEFT FROM LOCKED AUTO,Thursday,01/30/2014 08:00:00 AM +0000,21:32,NORTHERN,NONE,FILLMORE ST / CLAY ST,-122.434205044014,37.7907105245241,"(37.7907105245241, -122.434205044014)",304
1.40090094E8,LARCENY/THEFT,PETTY THEFT FROM LOCKED AUTO,Thursday,01/30/2014 08:00:00 AM +0000,19:00,CENTRAL,NONE,0 Block of CLAY ST,-122.396029839571,37.7956702357506,"(37.7956702357506, -122.396029839571)",305
1.40090088E8,LARCENY/THEFT,PETTY THEFT FROM LOCKED AUTO,Thursday,01/30/2014 08:00:00 AM +0000,19:00,RICHMOND,NONE,1000 Block of POINTLOBOS AV,-122.512538760234,37.7772029583595,"(37.7772029583595, -122.512538760234)",306
1.40090016E8,ASSAULT,ATTEMPTED HOMICIDE WITH A GUN,Thursday,01/30/2014 08:00:00 AM +0000,21:00,BAYVIEW,NONE,0 Block of TURNER TR,-122.395240506219,37.756718485326,"(37.756718485326, -122.395240506219)",307
1.40090016E8,ASSAULT,AGGRAVATED ASSAULT WITH A GUN,Thursday,01/30/2014 08:00:00 AM +0000,21:00,BAYVIEW,NONE,0 Block of TURNER TR,-122.395240506219,37.756718485326,"(37.756718485326, -122.395240506219)",308
1.40089956E8,MISSING PERSON,FOUND PERSON,Thursday,01/30/2014 08:00:00 AM +0000,08:00,PARK,LOCATED,1200 Block of PAGE ST,-122.442073276743,37.7716190763393,"(37.7716190763393, -122.442073276743)",309
1.40089956E8,MISSING PERSON,MISSING JUVENILE,Thursday,01/30/2014 08:00:00 AM +0000,08:00,PARK,LOCATED,1200 Block of PAGE ST,-122.442073276743,37.7716190763393,"(37.7716190763393, -122.442073276743)",310
1.40089956E8,NON-CRIMINAL,SHELTER,Thursday,01/30/2014 08:00:00 AM +0000,08:00,PARK,LOCATED,1200 Block of PAGE ST,-122.442073276743,37.7716190763393,"(37.7716190763393, -122.442073276743)",311
1.40089821E8,OTHER OFFENSES,TAMPERING WITH A VEHICLE,Thursday,01/30/2014 08:00:00 AM +0000,05:00,NORTHERN,NONE,1800 Block of CALIFORNIA ST,-122.425168908123,37.7898965042559,"(37.7898965042559, -122.425168908123)",312
1.40089809E8,TRESPASS,TRESPASSING,Thursday,01/30/2014 08:00:00 AM +0000,19:00,CENTRAL,NONE,900 Block of POST ST,-122.416654238924,37.7872774372709,"(37.7872774372709, -122.416654238924)",313
1.40089809E8,ASSAULT,BATTERY,Thursday,01/30/2014 08:00:00 AM +0000,19:00,CENTRAL,NONE,900 Block of POST ST,-122.416654238924,37.7872774372709,"(37.7872774372709, -122.416654238924)",314
1.40089718E8,LARCENY/THEFT,GRAND THEFT FROM LOCKED AUTO,Thursday,01/30/2014 08:00:00 AM +0000,16:00,NORTHERN,NONE,1900 Block of SUTTER ST,-122.432525209788,37.7861469308206,"(37.7861469308206, -122.432525209788)",315
1.40089702E8,BURGLARY,"BURGLARY OF FLAT, UNLAWFUL ENTRY",Thursday,01/30/2014 08:00:00 AM +0000,17:30,CENTRAL,NONE,1300 Block of CLAY ST,-122.41540157961,37.7930704525314,"(37.7930704525314, -122.41540157961)",316
1.40089241E8,SUICIDE,SUICIDE BY STRANGULATION,Thursday,01/30/2014 08:00:00 AM +0000,13:00,INGLESIDE,NONE,100 Block of FLORENTINE AV,-122.443166935462,37.7115352795908,"(37.7115352795908, -122.443166935462)",317
1.40089116E8,DRUG/NARCOTIC,TRANSPORTATION OF METH-AMPHETAMINE,Thursday,01/30/2014 08:00:00 AM +0000,15:38,BAYVIEW,"ARREST, BOOKED",FITZGERALD AV / JENNINGS ST,-122.393174162423,37.722036232083,"(37.722036232083, -122.393174162423)",318
1.40089116E8,DRUG/NARCOTIC,POSSESSION OF METH-AMPHETAMINE FOR SALE,Thursday,01/30/2014 08:00:00 AM +0000,15:38,BAYVIEW,"ARREST, BOOKED",FITZGERALD AV / JENNINGS ST,-122.393174162423,37.722036232083,"(37.722036232083, -122.393174162423)",319
1.40088992E8,NON-CRIMINAL,AIDED CASE,Thursday,01/30/2014 08:00:00 AM +0000,13:24,TENDERLOIN,PSYCHOPATHIC CASE,0 Block of GROVE ST,-122.415859883111,37.7787163114488,"(37.7787163114488, -122.415859883111)",320
1.46021289E8,LARCENY/THEFT,GRAND THEFT FROM LOCKED AUTO,Thursday,01/30/2014 08:00:00 AM +0000,18:00,RICHMOND,NONE,800 Block of 28TH AV,-122.486425956138,37.7731606599387,"(37.7731606599387, -122.486425956138)",321
1.40088544E8,MISSING PERSON,FOUND PERSON,Thursday,01/30/2014 08:00:00 AM +0000,12:00,MISSION,LOCATED,1000 Block of POTRERO AV,-122.406656623063,37.7568256145423,"(37.7568256145423, -122.406656623063)",322
1.40088544E8,MISSING PERSON,MISSING ADULT,Thursday,01/30/2014 08:00:00 AM +0000,12:00,MISSION,LOCATED,1000 Block of POTRERO AV,-122.406656623063,37.7568256145423,"(37.7568256145423, -122.406656623063)",323
1.40088469E8,NON-CRIMINAL,"DEATH REPORT, CAUSE UNKNOWN",Thursday,01/30/2014 08:00:00 AM +0000,11:00,SOUTHERN,NONE,600 Block of KING ST,-122.401823910949,37.7704845165855,"(37.7704845165855, -122.401823910949)",324
1.40088102E8,DRUG/NARCOTIC,POSSESSION OF HEROIN,Thursday,01/30/2014 08:00:00 AM +0000,09:50,TENDERLOIN,"ARREST, BOOKED",100 Block of LEAVENWORTH ST,-122.413941579105,37.7824340490246,"(37.7824340490246, -122.413941579105)",325
1.40088049E8,LARCENY/THEFT,PETTY THEFT FROM LOCKED AUTO,Thursday,01/30/2014 08:00:00 AM +0000,08:30,TENDERLOIN,NONE,200 Block of GOLDEN GATE AV,-122.414007668326,37.7818107289701,"(37.7818107289701, -122.414007668326)",326
1.40088328E8,LARCENY/THEFT,PETTY THEFT BICYCLE,Thursday,01/30/2014 08:00:00 AM +0000,09:13,TENDERLOIN,NONE,0 Block of GROVE ST,-122.415859883111,37.7787163114488,"(37.7787163114488, -122.415859883111)",327
1.40088306E8,NON-CRIMINAL,AIDED CASE,Thursday,01/30/2014 08:00:00 AM +0000,11:08,SOUTHERN,"ARREST, CITED",6TH ST / STEVENSON ST,-122.409696355558,37.7817540588712,"(37.7817540588712, -122.409696355558)",328
1.40088306E8,OTHER OFFENSES,VIOLATION OF MUNICIPAL CODE,Thursday,01/30/2014 08:00:00 AM +0000,11:08,SOUTHERN,"ARREST, CITED",6TH ST / STEVENSON ST,-122.409696355558,37.7817540588712,"(37.7817540588712, -122.409696355558)",329
1.40088306E8,DRUNKENNESS,UNDER INFLUENCE OF ALCOHOL IN A PUBLIC PLACE,Thursday,01/30/2014 08:00:00 AM +0000,11:08,SOUTHERN,"ARREST, CITED",6TH ST / STEVENSON ST,-122.409696355558,37.7817540588712,"(37.7817540588712, -122.409696355558)",330
1.4008818E8,LARCENY/THEFT,PETTY THEFT FROM A BUILDING,Thursday,01/30/2014 08:00:00 AM +0000,09:48,TENDERLOIN,NONE,0 Block of GROVE ST,-122.415859883111,37.7787163114488,"(37.7787163114488, -122.415859883111)",331
1.40088033E8,VANDALISM,"MALICIOUS MISCHIEF, VANDALISM OF VEHICLES",Thursday,01/30/2014 08:00:00 AM +0000,09:08,NORTHERN,NONE,1000 Block of VANNESS AV,-122.421154998374,37.7847660146753,"(37.7847660146753, -122.421154998374)",332
1.40088293E8,DRUG/NARCOTIC,POSSESSION OF MARIJUANA FOR SALES,Thursday,01/30/2014 08:00:00 AM +0000,10:40,NORTHERN,JUVENILE CITED,1100 Block of FRANCISCO ST,-122.424123100737,37.8033393988503,"(37.8033393988503, -122.424123100737)",333
1.40088293E8,DRUG/NARCOTIC,POSSESSION OF MARIJUANA,Thursday,01/30/2014 08:00:00 AM +0000,10:40,NORTHERN,JUVENILE CITED,1100 Block of FRANCISCO ST,-122.424123100737,37.8033393988503,"(37.8033393988503, -122.424123100737)",334
1.40088027E8,SUSPICIOUS OCC,SUSPICIOUS OCCURRENCE,Thursday,01/30/2014 08:00:00 AM +0000,09:28,BAYVIEW,NONE,0 Block of BELL CT,-122.384817605402,37.734103364971,"(37.734103364971, -122.384817605402)",335
1.40104338E8,VEHICLE THEFT,STOLEN AUTOMOBILE,Thursday,01/30/2014 08:00:00 AM +0000,17:00,INGLESIDE,NONE,DELANO AV / RUDDEN AV,-122.442326834535,37.7245928195679,"(37.7245928195679, -122.442326834535)",336
1.40107235E8,LARCENY/THEFT,PETTY THEFT FROM A BUILDING,Thursday,01/30/2014 08:00:00 AM +0000,13:20,INGLESIDE,NONE,1000 Block of CAYUGA AV,-122.439806982073,37.7220759958855,"(37.7220759958855, -122.439806982073)",337
1.40087972E8,NON-CRIMINAL,"AIDED CASE, SICK PERSON",Thursday,01/30/2014 08:00:00 AM +0000,09:14,MISSION,NONE,400 Block of CASTRO ST,-122.435051457412,37.7617644994308,"(37.7617644994308, -122.435051457412)",338
1.46020366E8,LARCENY/THEFT,GRAND THEFT FROM LOCKED AUTO,Thursday,01/30/2014 08:00:00 AM +0000,18:30,PARK,NONE,DUBOCE AV / NOE ST,-122.433575097282,37.7691767476277,"(37.7691767476277, -122.433575097282)",339
1.40087881E8,OTHER OFFENSES,LOST/STOLEN LICENSE PLATE,Thursday,01/30/2014 08:00:00 AM +0000,05:00,TARAVAL,NONE,2500 Block of 46TH AV,-122.503350848933,37.7395952103902,"(37.7395952103902, -122.503350848933)",340
1.40087869E8,OTHER OFFENSES,MISCELLANEOUS STATE MISDEMEANOR,Thursday,01/30/2014 08:00:00 AM +0000,07:54,PARK,"ARREST, BOOKED",1800 Block of WALLER ST,-122.454877622403,37.7681470009312,"(37.7681470009312, -122.454877622403)",341
1.40087803E8,WARRANTS,WARRANT ARREST,Thursday,01/30/2014 08:00:00 AM +0000,05:47,TENDERLOIN,"ARREST, CITED",100 Block of GOLDEN GATE AV,-122.413069580431,37.7819985762419,"(37.7819985762419, -122.413069580431)",342
1.40087803E8,OTHER OFFENSES,VIOLATION OF MUNICIPAL POLICE CODE,Thursday,01/30/2014 08:00:00 AM +0000,05:47,TENDERLOIN,"ARREST, CITED",100 Block of GOLDEN GATE AV,-122.413069580431,37.7819985762419,"(37.7819985762419, -122.413069580431)",343
1.4010891E8,LARCENY/THEFT,GRAND THEFT FROM UNLOCKED AUTO,Thursday,01/30/2014 08:00:00 AM +0000,06:00,SOUTHERN,NONE,1600 Block of HOWARD ST,-122.417394670813,37.7707265538207,"(37.7707265538207, -122.417394670813)",344
1.4008779E8,TRESPASS,TRESPASSING,Thursday,01/30/2014 08:00:00 AM +0000,05:00,CENTRAL,"ARREST, CITED",0 Block of MONTGOMERY ST,-122.402082620125,37.7893026440846,"(37.7893026440846, -122.402082620125)",345
1.4008779E8,OTHER OFFENSES,RESISTING ARREST,Thursday,01/30/2014 08:00:00 AM +0000,05:00,CENTRAL,"ARREST, CITED",0 Block of MONTGOMERY ST,-122.402082620125,37.7893026440846,"(37.7893026440846, -122.402082620125)",346
1.4008774E8,WARRANTS,WARRANT ARREST,Thursday,01/30/2014 08:00:00 AM +0000,02:57,TENDERLOIN,"ARREST, BOOKED",EDDY ST / TAYLOR ST,-122.410955248906,37.7841399509594,"(37.7841399509594, -122.410955248906)",347
1.4008774E8,DRUNKENNESS,UNDER INFLUENCE OF ALCOHOL IN A PUBLIC PLACE,Thursday,01/30/2014 08:00:00 AM +0000,02:57,TENDERLOIN,"ARREST, BOOKED",EDDY ST / TAYLOR ST,-122.410955248906,37.7841399509594,"(37.7841399509594, -122.410955248906)",348
1.40089053E8,LARCENY/THEFT,PETTY THEFT FROM LOCKED AUTO,Thursday,01/30/2014 08:00:00 AM +0000,00:01,TARAVAL,NONE,15TH AV / QUINTARA ST,-122.47175044359,37.7488349481275,"(37.7488349481275, -122.47175044359)",349
1.4008897E8,NON-CRIMINAL,FOUND PROPERTY,Thursday,01/30/2014 08:00:00 AM +0000,12:36,CENTRAL,NONE,1400 Block of JACKSON ST,-122.419216799172,37.7944568044198,"(37.7944568044198, -122.419216799172)",350
1.40087637E8,LARCENY/THEFT,PETTY THEFT FROM A BUILDING,Thursday,01/30/2014 08:00:00 AM +0000,00:55,TENDERLOIN,"ARREST, BOOKED",100 Block of TAYLOR ST,-122.410763183048,37.7833988600308,"(37.7833988600308, -122.410763183048)",351
1.40087637E8,ASSAULT,"AGGRAVATED ASSAULT OF POLICE OFFICER,BODILY FORCE",Thursday,01/30/2014 08:00:00 AM +0000,00:55,TENDERLOIN,"ARREST, BOOKED",100 Block of TAYLOR ST,-122.410763183048,37.7833988600308,"(37.7833988600308, -122.410763183048)",352
1.40117626E8,NON-CRIMINAL,"AIDED CASE, DOG BITE",Thursday,01/30/2014 08:00:00 AM +0000,18:00,NORTHERN,NONE,1500 Block of EDDY ST,-122.433064305204,37.7813010929863,"(37.7813010929863, -122.433064305204)",353
1.4008758E8,DISORDERLY CONDUCT,COMMITTING PUBLIC NUISANCE,Thursday,01/30/2014 08:00:00 AM +0000,00:35,MISSION,NONE,CESAR CHAVEZ ST / MISSION ST,-122.418221946229,37.7481664083985,"(37.7481664083985, -122.418221946229)",354
1.40087637E8,ASSAULT,AGGRAVATED ASSAULT WITH A KNIFE,Thursday,01/30/2014 08:00:00 AM +0000,00:55,TENDERLOIN,"ARREST, BOOKED",100 Block of TAYLOR ST,-122.410763183048,37.7833988600308,"(37.7833988600308, -122.410763183048)",355
1.40090505E8,MISSING PERSON,FOUND PERSON,Thursday,01/30/2014 08:00:00 AM +0000,21:40,INGLESIDE,LOCATED,0 Block of LAIDLEY ST,-122.430879136384,37.7403695938978,"(37.7403695938978, -122.430879136384)",356
1.40090505E8,MISSING PERSON,MISSING ADULT,Thursday,01/30/2014 08:00:00 AM +0000,21:40,INGLESIDE,LOCATED,0 Block of LAIDLEY ST,-122.430879136384,37.7403695938978,"(37.7403695938978, -122.430879136384)",357
1.40090458E8,DRUNKENNESS,UNDER INFLUENCE OF ALCOHOL IN A PUBLIC PLACE,Thursday,01/30/2014 08:00:00 AM +0000,23:12,MISSION,"ARREST, BOOKED",100 Block of LILAC ST,-122.41756303529,37.7494493751342,"(37.7494493751342, -122.41756303529)",358
1.40090389E8,OTHER OFFENSES,"DRIVERS LICENSE, SUSPENDED OR REVOKED",Thursday,01/30/2014 08:00:00 AM +0000,23:30,BAYVIEW,"ARREST, CITED",JERROLD AV / PHELPS ST,-122.391269032991,37.7398531385192,"(37.7398531385192, -122.391269032991)",359
1.40090367E8,LARCENY/THEFT,GRAND THEFT FROM LOCKED AUTO,Thursday,01/30/2014 08:00:00 AM +0000,21:00,CENTRAL,NONE,PACIFIC AV / GRANT AV,-122.406831986427,37.7969028838908,"(37.7969028838908, -122.406831986427)",360
1.40087615E8,ASSAULT,AGGRAVATED ASSAULT WITH A KNIFE,Thursday,01/30/2014 08:00:00 AM +0000,00:42,CENTRAL,"ARREST, BOOKED",500 Block of BROADWAY ST,-122.406549430388,37.797913729484,"(37.797913729484, -122.406549430388)",361
1.40087524E8,OTHER OFFENSES,TRAFFIC VIOLATION ARREST,Thursday,01/30/2014 08:00:00 AM +0000,00:21,NORTHERN,"ARREST, BOOKED",VANNESS AV / OFARRELL ST,-122.421195221815,37.7847536577561,"(37.7847536577561, -122.421195221815)",362
1.40087524E8,WARRANTS,ENROUTE TO OUTSIDE JURISDICTION,Thursday,01/30/2014 08:00:00 AM +0000,00:21,NORTHERN,"ARREST, BOOKED",VANNESS AV / OFARRELL ST,-122.421195221815,37.7847536577561,"(37.7847536577561, -122.421195221815)",363
1.40100386E8,LARCENY/THEFT,GRAND THEFT FROM LOCKED AUTO,Thursday,01/30/2014 08:00:00 AM +0000,09:45,BAYVIEW,NONE,2000 Block of BAY SHORE BL,-122.398957241472,37.7153163906023,"(37.7153163906023, -122.398957241472)",364
1.40100392E8,LARCENY/THEFT,"LOST PROPERTY, GRAND THEFT",Thursday,01/30/2014 08:00:00 AM +0000,23:59,SOUTHERN,NONE,100 Block of 3RD ST,-122.400628855762,37.7851986640572,"(37.7851986640572, -122.400628855762)",365
1.4010074E8,ASSAULT,THREATS AGAINST LIFE,Thursday,01/30/2014 08:00:00 AM +0000,17:00,PARK,NONE,1400 Block of SCOTT ST,-122.437661632582,37.7829955008167,"(37.7829955008167, -122.437661632582)",366
1.40088914E8,NON-CRIMINAL,"AIDED CASE, MENTAL DISTURBED",Thursday,01/30/2014 08:00:00 AM +0000,14:05,SOUTHERN,PSYCHOPATHIC CASE,100 Block of 8TH ST,-122.411825528852,37.7764401993936,"(37.7764401993936, -122.411825528852)",367
1.40088873E8,TRESPASS,TRESPASSING,Thursday,01/30/2014 08:00:00 AM +0000,12:20,SOUTHERN,"ARREST, CITED",1000 Block of MISSION ST,-122.409171543628,37.7806541998122,"(37.7806541998122, -122.409171543628)",368
1.40088873E8,ASSAULT,BATTERY,Thursday,01/30/2014 08:00:00 AM +0000,12:20,SOUTHERN,"ARREST, CITED",1000 Block of MISSION ST,-122.409171543628,37.7806541998122,"(37.7806541998122, -122.409171543628)",369
1.40088287E8,OTHER OFFENSES,"DRIVERS LICENSE, SUSPENDED OR REVOKED",Thursday,01/30/2014 08:00:00 AM +0000,10:58,SOUTHERN,"ARREST, CITED",7TH ST / HOWARD ST,-122.409391574893,37.7779765037999,"(37.7779765037999, -122.409391574893)",370
1.40088839E8,LARCENY/THEFT,GRAND THEFT PICKPOCKET,Thursday,01/30/2014 08:00:00 AM +0000,13:42,TENDERLOIN,NONE,OFARRELL ST / JONES ST,-122.412970537591,37.7857883766888,"(37.7857883766888, -122.412970537591)",371
1.46023605E8,LARCENY/THEFT,PETTY THEFT OF PROPERTY,Thursday,01/30/2014 08:00:00 AM +0000,02:00,NORTHERN,NONE,800 Block of LARKIN ST,-122.417945928506,37.7855879292973,"(37.7855879292973, -122.417945928506)",372
1.40088271E8,OTHER OFFENSES,INDECENT EXPOSURE,Thursday,01/30/2014 08:00:00 AM +0000,10:41,SOUTHERN,"ARREST, CITED",200 Block of BERRY ST,-122.39336081481,37.7757375600381,"(37.7757375600381, -122.39336081481)",373
1.46023514E8,LARCENY/THEFT,PETTY THEFT OF PROPERTY,Thursday,01/30/2014 08:00:00 AM +0000,12:30,TARAVAL,NONE,1200 Block of 9TH AV,-122.466345933638,37.7651510162688,"(37.7651510162688, -122.466345933638)",374
1.46023213E8,LARCENY/THEFT,GRAND THEFT FROM LOCKED AUTO,Thursday,01/30/2014 08:00:00 AM +0000,09:45,BAYVIEW,NONE,2000 Block of BAY SHORE BL,-122.398957241472,37.7153163906023,"(37.7153163906023, -122.398957241472)",375
1.40089724E8,OTHER OFFENSES,"DRIVERS LICENSE, SUSPENDED OR REVOKED",Thursday,01/30/2014 08:00:00 AM +0000,19:05,MISSION,"ARREST, CITED",16TH ST / MISSION ST,-122.419671780296,37.7650501214668,"(37.7650501214668, -122.419671780296)",376
1.40088005E8,NON-CRIMINAL,FOUND PROPERTY,Thursday,01/30/2014 08:00:00 AM +0000,10:00,CENTRAL,NONE,600 Block of CALIFORNIA ST,-122.404445765034,37.7926709696751,"(37.7926709696751, -122.404445765034)",377
1.46022679E8,LARCENY/THEFT,GRAND THEFT FROM LOCKED AUTO,Thursday,01/30/2014 08:00:00 AM +0000,21:00,CENTRAL,NONE,300 Block of THE EMBARCADERONORTH ST,-122.395911581969,37.7974898666806,"(37.7974898666806, -122.395911581969)",378
1.46022663E8,LARCENY/THEFT,PETTY THEFT OF PROPERTY,Thursday,01/30/2014 08:00:00 AM +0000,12:30,CENTRAL,NONE,100 Block of CALIFORNIA ST,-122.397637518858,37.7935389484661,"(37.7935389484661, -122.397637518858)",379
1.40088237E8,LARCENY/THEFT,PETTY THEFT SHOPLIFTING,Thursday,01/30/2014 08:00:00 AM +0000,09:51,SOUTHERN,"ARREST, CITED",700 Block of MISSION ST,-122.403890223654,37.784623766879,"(37.784623766879, -122.403890223654)",380
1.40088679E8,ASSAULT,INFLICT INJURY ON COHABITEE,Thursday,01/30/2014 08:00:00 AM +0000,12:27,NORTHERN,NONE,1300 Block of WEBSTER ST,-122.430908286149,37.7828933039182,"(37.7828933039182, -122.430908286149)",381
1.40088657E8,BURGLARY,"BURGLARY OF APARTMENT HOUSE, UNLAWFUL ENTRY",Thursday,01/30/2014 08:00:00 AM +0000,11:00,SOUTHERN,NONE,1200 Block of MARKET ST,-122.415993642418,37.7777782990356,"(37.7777782990356, -122.415993642418)",382
1.4602234E8,LARCENY/THEFT,GRAND THEFT FROM LOCKED AUTO,Thursday,01/30/2014 08:00:00 AM +0000,21:30,CENTRAL,NONE,BROADWAY ST / THE EMBARCADERONORTH ST,-122.397391852808,37.7990658806462,"(37.7990658806462, -122.397391852808)",383
1.46022334E8,LARCENY/THEFT,GRAND THEFT OF PROPERTY,Thursday,01/30/2014 08:00:00 AM +0000,17:30,CENTRAL,NONE,500 Block of MONTGOMERY ST,-122.403033604135,37.7943482503856,"(37.7943482503856, -122.403033604135)",384
1.46022328E8,NON-CRIMINAL,LOST PROPERTY,Thursday,01/30/2014 08:00:00 AM +0000,21:00,CENTRAL,NONE,SUTTER ST / MASON ST,-122.410246553741,37.7890162035598,"(37.7890162035598, -122.410246553741)",385
1.46022312E8,LARCENY/THEFT,PETTY THEFT OF PROPERTY,Thursday,01/30/2014 08:00:00 AM +0000,22:30,CENTRAL,NONE,STOCKTON ST / WASHINGTON ST,-122.408083155369,37.7949405880283,"(37.7949405880283, -122.408083155369)",386
1.46022306E8,LARCENY/THEFT,GRAND THEFT OF PROPERTY,Thursday,01/30/2014 08:00:00 AM +0000,20:30,CENTRAL,NONE,600 Block of UNION ST,-122.410490457304,37.8002467775697,"(37.8002467775697, -122.410490457304)",387
1.46022271E8,LARCENY/THEFT,GRAND THEFT FROM LOCKED AUTO,Thursday,01/30/2014 08:00:00 AM +0000,22:00,CENTRAL,NONE,HYDE ST / POST ST,-122.416642370005,37.7872450378149,"(37.7872450378149, -122.416642370005)",388
1.46022265E8,LARCENY/THEFT,PETTY THEFT OF PROPERTY,Thursday,01/30/2014 08:00:00 AM +0000,17:20,TENDERLOIN,NONE,GEARY ST / STOCKTON ST,-122.406592269796,37.7875673013055,"(37.7875673013055, -122.406592269796)",389
1.46022259E8,LARCENY/THEFT,GRAND THEFT FROM UNLOCKED AUTO,Thursday,01/30/2014 08:00:00 AM +0000,10:00,CENTRAL,NONE,100 Block of COLUMBUS AV,-122.405062569936,37.7967940114286,"(37.7967940114286, -122.405062569936)",390
1.46022209E8,LARCENY/THEFT,PETTY THEFT OF PROPERTY,Thursday,01/30/2014 08:00:00 AM +0000,12:44,CENTRAL,NONE,200 Block of MONTGOMERY ST,-122.402466101968,37.791162224554,"(37.791162224554, -122.402466101968)",391
1.40088594E8,NON-CRIMINAL,"AIDED CASE, SICK PERSON",Thursday,01/30/2014 08:00:00 AM +0000,12:28,PARK,NONE,PAGE ST / COLE ST,-122.450410661672,37.7705173294311,"(37.7705173294311, -122.450410661672)",392
1.46026239E8,LARCENY/THEFT,GRAND THEFT FROM LOCKED AUTO,Thursday,01/30/2014 08:00:00 AM +0000,22:20,SOUTHERN,NONE,0 Block of DORE ST,-122.440300106415,37.7631854298775,"(37.7631854298775, -122.440300106415)",393
1.40088447E8,VEHICLE THEFT,STOLEN AUTOMOBILE,Thursday,01/30/2014 08:00:00 AM +0000,08:00,TARAVAL,NONE,3500 Block of VICENTE ST,-122.504560818129,37.7380068170233,"(37.7380068170233, -122.504560818129)",394
1.4602213E8,LARCENY/THEFT,GRAND THEFT OF PROPERTY,Thursday,01/30/2014 08:00:00 AM +0000,08:55,CENTRAL,NONE,800 Block of HYDE ST,-122.416937653783,37.7885006163463,"(37.7885006163463, -122.416937653783)",395
1.4009725E8,VEHICLE THEFT,STOLEN TRUCK,Thursday,01/30/2014 08:00:00 AM +0000,17:00,TARAVAL,NONE,2200 Block of 46TH AV,-122.483432241854,37.7455718823828,"(37.7455718823828, -122.483432241854)",396
1.46020344E8,LARCENY/THEFT,GRAND THEFT FROM LOCKED AUTO,Thursday,01/30/2014 08:00:00 AM +0000,14:40,PARK,NONE,100 Block of JOHNFKENNEDY DR,-122.456866495245,37.7710282062059,"(37.7710282062059, -122.456866495245)",397
1.40088221E8,DRUG/NARCOTIC,POSSESSION OF NARCOTICS PARAPHERNALIA,Thursday,01/30/2014 08:00:00 AM +0000,10:19,CENTRAL,"ARREST, BOOKED",100 Block of DRUMM ST,-122.396548334649,37.7945995681598,"(37.7945995681598, -122.396548334649)",398
1.40088221E8,DRUG/NARCOTIC,POSSESSION OF METH-AMPHETAMINE,Thursday,01/30/2014 08:00:00 AM +0000,10:19,CENTRAL,"ARREST, BOOKED",100 Block of DRUMM ST,-122.396548334649,37.7945995681598,"(37.7945995681598, -122.396548334649)",399
1.40088403E8,VANDALISM,"MALICIOUS MISCHIEF, VANDALISM OF VEHICLES",Thursday,01/30/2014 08:00:00 AM +0000,11:11,NORTHERN,NONE,1000 Block of ELLIS ST,-122.42354916749,37.7834652322373,"(37.7834652322373, -122.42354916749)",400
1.40088403E8,LARCENY/THEFT,ATTEMPTED THEFT FROM LOCKED VEHICLE,Thursday,01/30/2014 08:00:00 AM +0000,11:11,NORTHERN,NONE,1000 Block of ELLIS ST,-122.42354916749,37.7834652322373,"(37.7834652322373, -122.42354916749)",401
1.40091531E8,LARCENY/THEFT,PETTY THEFT FROM UNLOCKED AUTO,Thursday,01/30/2014 08:00:00 AM +0000,23:00,BAYVIEW,NONE,600 Block of SWEENY ST,-122.415065456652,37.7309454309608,"(37.7309454309608, -122.415065456652)",402
1.40088118E8,OTHER OFFENSES,TRAFFIC VIOLATION,Thursday,01/30/2014 08:00:00 AM +0000,10:10,TENDERLOIN,"ARREST, CITED",8TH ST / MARKET ST,-122.414743835382,37.778719262789,"(37.778719262789, -122.414743835382)",403
1.46021784E8,LARCENY/THEFT,GRAND THEFT FROM LOCKED AUTO,Thursday,01/30/2014 08:00:00 AM +0000,22:30,NORTHERN,NONE,VANNESS AV / TURK ST,-122.420641893733,37.7819608221837,"(37.7819608221837, -122.420641893733)",404
1.46021778E8,LARCENY/THEFT,GRAND THEFT FROM LOCKED AUTO,Thursday,01/30/2014 08:00:00 AM +0000,19:15,NORTHERN,NONE,HICKORY ST / VANNESS AV,-122.41941591946,37.7759046144223,"(37.7759046144223, -122.41941591946)",405
1.46021756E8,LARCENY/THEFT,GRAND THEFT FROM LOCKED AUTO,Thursday,01/30/2014 08:00:00 AM +0000,19:30,NORTHERN,NONE,500 Block of FULTON ST,-122.426331534586,37.7784014852914,"(37.7784014852914, -122.426331534586)",406
1.46021734E8,LARCENY/THEFT,GRAND THEFT FROM LOCKED AUTO,Thursday,01/30/2014 08:00:00 AM +0000,19:30,NORTHERN,NONE,HAIGHT ST / GOUGH ST,-122.421944172802,37.7730368445535,"(37.7730368445535, -122.421944172802)",407
1.46021728E8,LARCENY/THEFT,GRAND THEFT FROM LOCKED AUTO,Thursday,01/30/2014 08:00:00 AM +0000,06:30,NORTHERN,NONE,1100 Block of GOUGH ST,-122.424257093508,37.7834177443769,"(37.7834177443769, -122.424257093508)",408
1.46021706E8,LARCENY/THEFT,GRAND THEFT FROM LOCKED AUTO,Thursday,01/30/2014 08:00:00 AM +0000,18:55,NORTHERN,NONE,FRANKLIN ST / PAGE ST,-122.420254960348,37.7743581710701,"(37.7743581710701, -122.420254960348)",409
1.46025479E8,LARCENY/THEFT,GRAND THEFT FROM LOCKED AUTO,Thursday,01/30/2014 08:00:00 AM +0000,15:00,BAYVIEW,NONE,23RD ST / ILLINOIS ST,-122.387067977547,37.7554460266182,"(37.7554460266182, -122.387067977547)",410
1.40097539E8,VEHICLE THEFT,STOLEN AUTOMOBILE,Thursday,01/30/2014 08:00:00 AM +0000,18:00,CENTRAL,NONE,2100 Block of LEAVENWORTH ST,-122.417801065238,37.8006515136243,"(37.8006515136243, -122.417801065238)",411
1.40102291E8,NON-CRIMINAL,LOST PROPERTY,Thursday,01/30/2014 08:00:00 AM +0000,14:00,NORTHERN,NONE,900 Block of LARKIN ST,-122.418146539772,37.7861671280392,"(37.7861671280392, -122.418146539772)",412
1.40103584E8,LARCENY/THEFT,PETTY THEFT FROM A BUILDING,Thursday,01/30/2014 08:00:00 AM +0000,17:00,BAYVIEW,NONE,1700 Block of TENNESSEE ST,-122.388358453806,37.7492528915984,"(37.7492528915984, -122.388358453806)",413
1.46025504E8,LARCENY/THEFT,GRAND THEFT FROM LOCKED AUTO,Thursday,01/30/2014 08:00:00 AM +0000,19:30,BAYVIEW,NONE,BAYVIEW ST / LATONA ST,-122.39236136848,37.7324903419633,"(37.7324903419633, -122.39236136848)",414
1.40106497E8,LARCENY/THEFT,PETTY THEFT FROM A BUILDING,Thursday,01/30/2014 08:00:00 AM +0000,09:00,NORTHERN,NONE,200 Block of BUCHANAN ST,-122.427194357847,37.7724854085336,"(37.7724854085336, -122.427194357847)",415
1.40091133E8,MISSING PERSON,FOUND PERSON,Thursday,01/30/2014 08:00:00 AM +0000,20:30,NORTHERN,LOCATED,3200 Block of OCTAVIA ST,-122.429618879173,37.8020912257949,"(37.8020912257949, -122.429618879173)",416
1.40091133E8,MISSING PERSON,MISSING ADULT,Thursday,01/30/2014 08:00:00 AM +0000,20:30,NORTHERN,LOCATED,3200 Block of OCTAVIA ST,-122.429618879173,37.8020912257949,"(37.8020912257949, -122.429618879173)",417
1.40091014E8,LARCENY/THEFT,GRAND THEFT FROM LOCKED AUTO,Thursday,01/30/2014 08:00:00 AM +0000,20:00,TARAVAL,NONE,1700 Block of 15TH AV,-122.471055913584,37.7556940471788,"(37.7556940471788, -122.471055913584)",418
1.4009149E8,LARCENY/THEFT,GRAND THEFT FROM A BUILDING,Thursday,01/30/2014 08:00:00 AM +0000,16:50,SOUTHERN,NONE,200 Block of SPEAR ST,-122.392474484542,37.7913149337912,"(37.7913149337912, -122.392474484542)",419
1.40091462E8,MISSING PERSON,MISSING ADULT,Thursday,01/30/2014 08:00:00 AM +0000,09:00,SOUTHERN,NONE,0 Block of DORE ST,-122.412996750977,37.7738519785709,"(37.7738519785709, -122.412996750977)",420
1.4009089E8,BURGLARY,"BURGLARY,RESIDENCE UNDER CONSTRT, FORCIBLE ENTRY",Thursday,01/30/2014 08:00:00 AM +0000,22:00,BAYVIEW,NONE,1900 Block of MARIPOSA ST,-122.402631851068,37.7633816415143,"(37.7633816415143, -122.402631851068)",421
1.40090737E8,VEHICLE THEFT,STOLEN AUTOMOBILE,Thursday,01/30/2014 08:00:00 AM +0000,18:00,INGLESIDE,NONE,800 Block of VIENNA ST,-122.434334235896,37.7154858071538,"(37.7154858071538, -122.434334235896)",422
1.40087994E8,NON-CRIMINAL,FOUND PROPERTY,Thursday,01/30/2014 08:00:00 AM +0000,09:35,TENDERLOIN,NONE,200 Block of HYDE ST,-122.41582223039,37.7829992217322,"(37.7829992217322, -122.41582223039)",423
1.40090583E8,BURGLARY,"BURGLARY OF APARTMENT HOUSE, UNLAWFUL ENTRY",Thursday,01/30/2014 08:00:00 AM +0000,18:00,CENTRAL,NONE,800 Block of LEAVENWORTH ST,-122.415162923307,37.788480192887,"(37.788480192887, -122.415162923307)",424
1.40090533E8,LARCENY/THEFT,GRAND THEFT FROM LOCKED AUTO,Thursday,01/30/2014 08:00:00 AM +0000,19:00,BAYVIEW,NONE,MISSOURI ST / 17TH ST,-122.396774160338,37.7651296428012,"(37.7651296428012, -122.396774160338)",425
1.4009042E8,LARCENY/THEFT,PETTY THEFT FROM LOCKED AUTO,Thursday,01/30/2014 08:00:00 AM +0000,23:25,CENTRAL,NONE,600 Block of GEARY ST,-122.413367257415,37.7867293689994,"(37.7867293689994, -122.413367257415)",426
1.40090141E8,MISSING PERSON,FOUND PERSON,Thursday,01/30/2014 08:00:00 AM +0000,21:20,RICHMOND,NONE,600 Block of 8TH AV,-122.466004538337,37.7769773757039,"(37.7769773757039, -122.466004538337)",427
1.40090141E8,MISSING PERSON,MISSING JUVENILE,Thursday,01/30/2014 08:00:00 AM +0000,21:20,RICHMOND,NONE,600 Block of 8TH AV,-122.466004538337,37.7769773757039,"(37.7769773757039, -122.466004538337)",428
1.40090135E8,ROBBERY,"ROBBERY ON THE STREET, STRONGARM",Thursday,01/30/2014 08:00:00 AM +0000,20:10,INGLESIDE,NONE,OCEAN AV / SAN JOSE AV,-122.444746663003,37.7229679041124,"(37.7229679041124, -122.444746663003)",429
1.40090107E8,NON-CRIMINAL,FOUND PROPERTY,Thursday,01/30/2014 08:00:00 AM +0000,20:30,RICHMOND,NONE,400 Block of CROSSOVER DR,-122.479360852948,37.7712831862568,"(37.7712831862568, -122.479360852948)",430
1.4009005E8,OTHER OFFENSES,"DRIVERS LICENSE, SUSPENDED OR REVOKED",Thursday,01/30/2014 08:00:00 AM +0000,21:20,INGLESIDE,"ARREST, CITED",1500 Block of GENEVA AV,-122.431904798537,37.7127285883017,"(37.7127285883017, -122.431904798537)",431
1.40090038E8,LARCENY/THEFT,PETTY THEFT SHOPLIFTING,Thursday,01/30/2014 08:00:00 AM +0000,20:50,SOUTHERN,NONE,900 Block of MARKET ST,-122.408482360584,37.7835070339009,"(37.7835070339009, -122.408482360584)",432
1.40090351E8,LARCENY/THEFT,GRAND THEFT FROM LOCKED AUTO,Thursday,01/30/2014 08:00:00 AM +0000,21:00,SOUTHERN,NONE,2ND ST / FOLSOM ST,-122.396707150502,37.7855429503041,"(37.7855429503041, -122.396707150502)",433
1.40090345E8,WARRANTS,WARRANT ARREST,Thursday,01/30/2014 08:00:00 AM +0000,22:45,TENDERLOIN,"ARREST, BOOKED",LEAVENWORTH ST / OFARRELL ST,-122.414619686906,37.785583058847,"(37.785583058847, -122.414619686906)",434
1.40090317E8,OTHER OFFENSES,"DRIVERS LICENSE, SUSPENDED OR REVOKED",Thursday,01/30/2014 08:00:00 AM +0000,23:00,INGLESIDE,"ARREST, CITED",4600 Block of MISSION ST,-122.435608436793,37.7235496439542,"(37.7235496439542, -122.435608436793)",435
1.40090301E8,LARCENY/THEFT,GRAND THEFT FROM LOCKED AUTO,Thursday,01/30/2014 08:00:00 AM +0000,20:30,PARK,NONE,CLAYTON ST / HAIGHT ST,-122.448578484966,37.7697977168831,"(37.7697977168831, -122.448578484966)",436
1.40090276E8,LARCENY/THEFT,GRAND THEFT FROM LOCKED AUTO,Thursday,01/30/2014 08:00:00 AM +0000,20:00,CENTRAL,NONE,0 Block of GREEN ST,-122.398925192373,37.8008843157356,"(37.8008843157356, -122.398925192373)",437
1.40090254E8,ASSAULT,THREATS AGAINST LIFE,Thursday,01/30/2014 08:00:00 AM +0000,17:00,CENTRAL,NONE,600 Block of PACIFIC AV,-122.406292154569,37.7969378519763,"(37.7969378519763, -122.406292154569)",438
1.40090254E8,LARCENY/THEFT,PETTY THEFT FROM A BUILDING,Thursday,01/30/2014 08:00:00 AM +0000,17:00,CENTRAL,NONE,600 Block of PACIFIC AV,-122.406292154569,37.7969378519763,"(37.7969378519763, -122.406292154569)",439
1.40090248E8,LARCENY/THEFT,PETTY THEFT FROM A BUILDING,Thursday,01/30/2014 08:00:00 AM +0000,15:30,INGLESIDE,NONE,100 Block of RAYMOND AV,-122.406551026517,37.7131229843487,"(37.7131229843487, -122.406551026517)",440
1.40090232E8,"SEX OFFENSES, FORCIBLE",SEXUAL BATTERY,Thursday,01/30/2014 08:00:00 AM +0000,21:30,CENTRAL,NONE,POST ST / KEARNY ST,-122.403663463962,37.788894680211,"(37.788894680211, -122.403663463962)",441
1.40090204E8,LARCENY/THEFT,GRAND THEFT FROM LOCKED AUTO,Thursday,01/30/2014 08:00:00 AM +0000,20:30,SOUTHERN,NONE,2ND ST / BRANNAN ST,-122.392082305321,37.7818457722573,"(37.7818457722573, -122.392082305321)",442
1.40090191E8,OTHER OFFENSES,"DRIVERS LICENSE, SUSPENDED OR REVOKED",Thursday,01/30/2014 08:00:00 AM +0000,21:50,INGLESIDE,"ARREST, CITED",GENEVA AV / BROOKDALE AV,-122.424549258586,37.710103274799,"(37.710103274799, -122.424549258586)",443
1.4009E8,MISSING PERSON,FOUND PERSON,Thursday,01/30/2014 08:00:00 AM +0000,16:00,MISSION,NONE,2700 Block of MISSION ST,-122.418630649152,37.7537481606605,"(37.7537481606605, -122.418630649152)",444
1.4009E8,MISSING PERSON,MISSING JUVENILE,Thursday,01/30/2014 08:00:00 AM +0000,16:00,MISSION,NONE,2700 Block of MISSION ST,-122.418630649152,37.7537481606605,"(37.7537481606605, -122.418630649152)",445
1.46025576E8,LARCENY/THEFT,GRAND THEFT FROM LOCKED AUTO,Thursday,01/30/2014 08:00:00 AM +0000,06:45,SOUTHERN,NONE,3RD ST / STEVENSON ST,-122.403030543289,37.7870232709481,"(37.7870232709481, -122.403030543289)",446
1.40089774E8,ASSAULT,BATTERY,Thursday,01/30/2014 08:00:00 AM +0000,18:05,NORTHERN,"ARREST, CITED",100 Block of LARKIN ST,-122.416544595157,37.778678327516,"(37.778678327516, -122.416544595157)",447
1.40089768E8,ASSAULT,AGGRAVATED ASSAULT WITH A DEADLY WEAPON,Thursday,01/30/2014 08:00:00 AM +0000,18:45,CENTRAL,NONE,GRANT AV / GEARY ST,-122.405043248406,37.7877653941874,"(37.7877653941874, -122.405043248406)",448
1.40089683E8,LARCENY/THEFT,PETTY THEFT FROM UNLOCKED AUTO,Thursday,01/30/2014 08:00:00 AM +0000,17:45,SOUTHERN,NONE,JONES ST / MARKET ST,-122.411979487494,37.7809039696758,"(37.7809039696758, -122.411979487494)",449
1.40089655E8,NON-CRIMINAL,FOUND PROPERTY,Thursday,01/30/2014 08:00:00 AM +0000,16:00,SOUTHERN,NONE,BRYANT ST / JACK LONDON AL,-122.394732037832,37.7821987713248,"(37.7821987713248, -122.394732037832)",450
1.40089627E8,WARRANTS,WARRANT ARREST,Thursday,01/30/2014 08:00:00 AM +0000,18:01,INGLESIDE,"ARREST, BOOKED",1700 Block of SUNNYDALE AV,-122.418469921971,37.7124493643675,"(37.7124493643675, -122.418469921971)",451
1.40089611E8,VEHICLE THEFT,STOLEN AUTOMOBILE,Thursday,01/30/2014 08:00:00 AM +0000,10:00,TARAVAL,NONE,JUDAH ST / 14TH AV,-122.471537718172,37.7619387454189,"(37.7619387454189, -122.471537718172)",452
1.40089586E8,OTHER OFFENSES,LOST/STOLEN LICENSE PLATE,Thursday,01/30/2014 08:00:00 AM +0000,08:00,NORTHERN,NONE,3000 Block of PIERCE ST,-122.438840254282,37.7976463931533,"(37.7976463931533, -122.438840254282)",453
1.40089473E8,FRAUD,FRAUDULENT CREDIT APPLICATION,Thursday,01/30/2014 08:00:00 AM +0000,14:29,CENTRAL,NONE,100 Block of PINE ST,-122.398719492171,37.7923573899754,"(37.7923573899754, -122.398719492171)",454
1.40089445E8,LARCENY/THEFT,PETTY THEFT FROM A BUILDING,Thursday,01/30/2014 08:00:00 AM +0000,16:50,MISSION,JUVENILE CITED,1700 Block of HARRISON ST,-122.413349606369,37.7692198887522,"(37.7692198887522, -122.413349606369)",455
1.40089423E8,VEHICLE THEFT,STOLEN AUTOMOBILE,Thursday,01/30/2014 08:00:00 AM +0000,15:00,TARAVAL,NONE,2400 Block of 47TH AV,-122.505716764048,37.7415025819794,"(37.7415025819794, -122.505716764048)",456
1.40089398E8,LARCENY/THEFT,GRAND THEFT FROM LOCKED AUTO,Thursday,01/30/2014 08:00:00 AM +0000,16:40,SOUTHERN,NONE,BRYANT ST / 9TH ST,-122.408534526845,37.7712906694516,"(37.7712906694516, -122.408534526845)",457
1.40089332E8,VEHICLE THEFT,STOLEN AUTOMOBILE,Thursday,01/30/2014 08:00:00 AM +0000,09:00,CENTRAL,NONE,100 Block of COLUMBUS AV,-122.405062569936,37.7967940114286,"(37.7967940114286, -122.405062569936)",458
1.40089285E8,WARRANTS,ENROUTE TO OUTSIDE JURISDICTION,Thursday,01/30/2014 08:00:00 AM +0000,16:46,INGLESIDE,"ARREST, BOOKED",3300 Block of MISSION ST,-122.421607115588,37.7430114795183,"(37.7430114795183, -122.421607115588)",459
1.40089285E8,ROBBERY,ROBBERY OF A CHAIN STORE WITH BODILY FORCE,Thursday,01/30/2014 08:00:00 AM +0000,16:46,INGLESIDE,"ARREST, BOOKED",3300 Block of MISSION ST,-122.421607115588,37.7430114795183,"(37.7430114795183, -122.421607115588)",460
1.40088061E8,LARCENY/THEFT,PETTY THEFT FROM A BUILDING,Thursday,01/30/2014 08:00:00 AM +0000,09:03,CENTRAL,NONE,800 Block of CHESTNUT ST,-122.416545844994,37.8033766169601,"(37.8033766169601, -122.416545844994)",461
1.40089257E8,TRESPASS,TRESPASSING,Thursday,01/30/2014 08:00:00 AM +0000,07:30,INGLESIDE,"ARREST, CITED",200 Block of MAYNARD ST,-122.425154974695,37.7294734516339,"(37.7294734516339, -122.425154974695)",462
1.40089075E8,OTHER OFFENSES,"DRIVERS LICENSE, SUSPENDED OR REVOKED",Thursday,01/30/2014 08:00:00 AM +0000,15:39,TENDERLOIN,"ARREST, CITED",EDDY ST / JONES ST,-122.412597377187,37.7839320277273,"(37.7839320277273, -122.412597377187)",463
1.40089025E8,TRESPASS,TRESPASSING,Thursday,01/30/2014 08:00:00 AM +0000,14:45,CENTRAL,"ARREST, CITED",400 Block of STOCKTON ST,-122.40700591265,37.7898710451762,"(37.7898710451762, -122.40700591265)",464
1.40088986E8,NON-CRIMINAL,"AIDED CASE, MENTAL DISTURBED",Thursday,01/30/2014 08:00:00 AM +0000,14:39,SOUTHERN,PSYCHOPATHIC CASE,0 Block of 12TH ST,-122.419807743904,37.773957998714,"(37.773957998714, -122.419807743904)",465
1.40088958E8,MISSING PERSON,FOUND PERSON,Thursday,01/30/2014 08:00:00 AM +0000,14:34,MISSION,LOCATED,1000 Block of POTRERO AV,-122.406656623063,37.7568256145423,"(37.7568256145423, -122.406656623063)",466
1.40088942E8,BURGLARY,"BURGLARY OF APARTMENT HOUSE, UNLAWFUL ENTRY",Thursday,01/30/2014 08:00:00 AM +0000,08:30,RICHMOND,NONE,500 Block of 12TH AV,-122.484670660707,37.7786483352633,"(37.7786483352633, -122.484670660707)",467
1.40088936E8,LARCENY/THEFT,PETTY THEFT SHOPLIFTING,Thursday,01/30/2014 08:00:00 AM +0000,12:35,MISSION,"ARREST, CITED",2600 Block of MISSION ST,-122.418692222258,37.7543978723364,"(37.7543978723364, -122.418692222258)",468
1.4008892E8,LARCENY/THEFT,GRAND THEFT FROM LOCKED AUTO,Thursday,01/30/2014 08:00:00 AM +0000,13:50,BAYVIEW,NONE,800 Block of CHINABASIN ST,-122.386755795305,37.765563514352,"(37.765563514352, -122.386755795305)",469
